{
  "locations": [
    {
      "code": "AAA",
      "lat": "-17.3595",
      "long": "-145.494",
      "name": "Anaa Airport",
      "city": "Anaa",
      "state": "Tuamotu-Gambier",
      "country": "French Polynesia",
      "woeid": "12512819",
      "tz": "Pacific/Midway",
      "phone": "",
      "type": "Airports",
      "email": "",
      "url": "",
      "runway_length": "4921",
      "elev": "7",
      "icao": "NTGA",
      "direct_flights": "2",
      "carriers": "1"
    },
    {
      "code": "AAE",
      "lat": "36.8236",
      "long": "7.8103",
      "name": "El Mellah Airport",
      "city": "El Tarf",
      "state": "Annaba",
      "country": "Algeria",
      "woeid": "12510325",
      "tz": "Africa/Algiers",
      "phone": "",
      "type": "Airports",
      "email": "",
      "url": "",
      "runway_length": "9843",
      "elev": "16",
      "icao": "DABB",
      "direct_flights": "6",
      "carriers": "2"
    },
    {
      "code": "AAL",
      "lat": "57.0952",
      "long": "9.85606",
      "name": "Aalborg Airport",
      "city": "Norresundby",
      "state": "Nordjylland",
      "country": "Denmark",
      "woeid": "12512587",
      "tz": "Europe/Copenhagen",
      "phone": "",
      "type": "Airports",
      "email": "",
      "url": "http://www.aal.dk/",
      "runway_length": "8700",
      "elev": "10",
      "icao": "EKYT",
      "direct_flights": "7",
      "carriers": "10"
    },
    {
      "code": "AAM",
      "lat": "-24.8",
      "long": "31.5333",
      "name": "Mala Mala",
      "city": "Mala Mala",
      "state": "",
      "country": "South Africa",
      "woeid": "55921381",
      "tz": "Africa/Johannesburg",
      "phone": "",
      "type": "Airports",
      "email": "",
      "url": "",
      "runway_length": "4420",
      "elev": "1200",
      "icao": "FAMD",
      "direct_flights": "1",
      "carriers": "1"
    },
  {
    "code": "AAN",
    "lat": "24.25",
    "long": "55.75",
    "name": "Al Ain Airport",
    "city": "Ayn al Faydah",
    "state": "Abu Dhabi",
    "country": "United Arab Emirates",
    "woeid": "12523371",
    "tz": "Asia\/Dubai",
    "phone": "",
    "type": "Airports",
    "email": "",
    "url": "",
    "runway_length": null,
    "elev": null,
    "icao": "OMAL",
    "direct_flights": "12",
    "carriers": "9"
  },
  {
    "code": "AAQ",
    "lat": "44.9",
    "long": "37.3167",
    "name": "Olkhovka Airport",
    "city": "Novorossiysk",
    "state": "Krasnodarskiy Kray",
    "country": "Russia",
    "woeid": "12516605",
    "tz": "Europe\/Moscow",
    "phone": "",
    "type": "Airports",
    "email": "",
    "url": "",
    "runway_length": null,
    "elev": null,
    "icao": "URKA",
    "direct_flights": "24",
    "carriers": "15"
  },
  {
    "code": "AAR",
    "lat": "56.3088",
    "long": "10.6154",
    "name": "Tirstrup Airport",
    "city": "Kolind",
    "state": "Midtjylland",
    "country": "Denmark",
    "woeid": "12512604",
    "tz": "Europe\/Copenhagen",
    "phone": "+45 8775 7000",
    "type": "Airports",
    "email": "",
    "url": "http:\/\/www.aar.dk",
    "runway_length": "9127",
    "elev": "81",
    "icao": "EKAH",
    "direct_flights": "9",
    "carriers": "8"
  },
  {
    "code": "AAT",
    "lat": "47.7406",
    "long": "88.0845",
    "name": "Altay Airport",
    "city": "Altay",
    "state": "Xinjiang",
    "country": "China",
    "woeid": "12511977",
    "tz": "Asia\/Urumqi",
    "phone": "",
    "type": "Airports",
    "email": "",
    "url": "",
    "runway_length": null,
    "elev": null,
    "icao": "ZWAT",
    "direct_flights": "1",
    "carriers": "1"
  },
  {
    "code": "AAX",
    "lat": "-19.5603",
    "long": "-46.9653",
    "name": "Romeu Zuma Airport",
    "city": "Arax\u00e1",
    "state": "Minas Gerais",
    "country": "Brazil",
    "woeid": "12511034",
    "tz": "America\/Sao_Paulo",
    "phone": "",
    "type": "Airports",
    "email": "",
    "url": "",
    "runway_length": "6230",
    "elev": "3274",
    "icao": "SBAX",
    "direct_flights": "2",
    "carriers": "1"
  },
  {
    "code": "AAY",
    "lat": "16.1947",
    "long": "52.1694",
    "name": "Al Gaidah Airport",
    "city": "Al Ghaydah",
    "state": "Hadramawt",
    "country": "Yemen",
    "woeid": "12523000",
    "tz": "Asia\/Aden",
    "phone": "",
    "type": "Airports",
    "email": "",
    "url": "",
    "runway_length": "8858",
    "elev": "98",
    "icao": "OYGD",
    "direct_flights": "3",
    "carriers": "2"
  },
  {
    "code": "ABA",
    "lat": "53.7167",
    "long": "91.4333",
    "name": "Abakan",
    "city": "Abakan",
    "state": "Khakasiya",
    "country": "Russian Federation",
    "woeid": "2119917",
    "tz": "Asia\/Krasnoyarsk",
    "phone": "",
    "type": "Airports",
    "email": "",
    "url": "",
    "runway_length": null,
    "elev": null,
    "icao": "UNAA",
    "direct_flights": "4",
    "carriers": "3"
  },
  {
    "code": "ABC",
    "lat": "38.9833",
    "long": "-1.85",
    "name": "Los Llanos",
    "city": "Albacete",
    "state": "Castilla-la Mancha",
    "country": "Spain",
    "woeid": "20081243",
    "tz": "Europe\/Madrid",
    "phone": "",
    "type": "Airports",
    "email": "",
    "url": "",
    "runway_length": null,
    "elev": null,
    "icao": "LEAB",
    "direct_flights": "3",
    "carriers": "2"
  },
  {
    "code": "ABD",
    "lat": "30.3374",
    "long": "48.3032",
    "name": "",
    "city": "Abadan",
    "state": "Khuzestan",
    "country": "Iran",
    "woeid": "2254271",
    "tz": "Asia\/Tehran",
    "phone": "",
    "type": "Airports",
    "email": "",
    "url": "",
    "runway_length": "10170",
    "elev": "10",
    "icao": "OIAA",
    "direct_flights": "5",
    "carriers": "3"
  },
  {
    "code": "ABE",
    "lat": "40.6514",
    "long": "-75.4342",
    "name": "Lehigh Valley International Airport",
    "city": "Allentown",
    "state": "Pennsylvania",
    "country": "United States",
    "woeid": "12518581",
    "tz": "America\/New_York",
    "phone": "610-266-6000",
    "type": "Airports",
    "email": "",
    "url": "http:\/\/www.lvia.org\/",
    "runway_length": null,
    "elev": null,
    "icao": "KABE",
    "direct_flights": "14",
    "carriers": "11"
  },
  {
    "code": "ABI",
    "lat": "32.4164",
    "long": "-99.6803",
    "name": "Abilene Regional Airport",
    "city": "Abilene",
    "state": "Texas",
    "country": "United States",
    "woeid": "12518518",
    "tz": "America\/Chicago",
    "phone": "",
    "type": "Airports",
    "email": "",
    "url": "",
    "runway_length": "7199",
    "elev": "1790",
    "icao": "KABI",
    "direct_flights": "2",
    "carriers": "4"
  },
  {
    "code": "ABJ",
    "lat": "5.2556",
    "long": "-3.9292",
    "name": "Abidjan Port Bouet Airport",
    "city": "Abidjan",
    "state": "Abidjan",
    "country": "Ivory Coast",
    "woeid": "12513870",
    "tz": "Africa\/Abidjan",
    "phone": "",
    "type": "Airports",
    "email": "",
    "url": "",
    "runway_length": "8858",
    "elev": "20",
    "icao": "DIAP",
    "direct_flights": "22",
    "carriers": "29"
  },
  {
    "code": "ABK",
    "lat": "6.73719",
    "long": "44.2797",
    "name": "Kabri Dar",
    "city": "Kabri Dar",
    "state": "Ogaden",
    "country": "Ethiopia",
    "woeid": "1317686",
    "tz": "Africa\/Addis_Ababa",
    "phone": "",
    "type": "Airports",
    "email": "",
    "url": "",
    "runway_length": "10935",
    "elev": "1800",
    "icao": "HAKD",
    "direct_flights": "1",
    "carriers": "1"
  },
  {
    "code": "ABL",
    "lat": "67.1058",
    "long": "-157.854",
    "name": "Ambler Airport",
    "city": "Kiana",
    "state": "Alaska",
    "country": "United States",
    "woeid": "12518600",
    "tz": "America\/Anchorage",
    "phone": "",
    "type": "Airports",
    "email": "",
    "url": "",
    "runway_length": "2600",
    "elev": "289",
    "icao": "",
    "direct_flights": "2",
    "carriers": "3"
  },
  {
    "code": "ABM",
    "lat": "-10.9438",
    "long": "142.453",
    "name": "Bamaga Airport",
    "city": "Seisia",
    "state": "Queensland",
    "country": "Australia",
    "woeid": "12510598",
    "tz": "Australia\/Brisbane",
    "phone": "",
    "type": "Airports",
    "email": "",
    "url": "",
    "runway_length": "6700",
    "elev": "49",
    "icao": "YBAM",
    "direct_flights": "1",
    "carriers": "1"
  },
  {
    "code": "ABQ",
    "lat": "35.0494",
    "long": "-106.625",
    "name": "Albuquerque International Airport",
    "city": "Albuquerque",
    "state": "New Mexico",
    "country": "United States",
    "woeid": "12518564",
    "tz": "America\/Denver",
    "phone": "",
    "type": "Airports",
    "email": "",
    "url": "",
    "runway_length": "13375",
    "elev": "5352",
    "icao": "KABQ",
    "direct_flights": "41",
    "carriers": "25"
  },
  {
    "code": "ABR",
    "lat": "45.4536",
    "long": "-98.4189",
    "name": "Aberdeen Regional Airport",
    "city": "Aberdeen",
    "state": "South Dakota",
    "country": "United States",
    "woeid": "12518514",
    "tz": "America\/Chicago",
    "phone": "",
    "type": "Airports",
    "email": "",
    "url": "",
    "runway_length": "6904",
    "elev": "1301",
    "icao": "KABR",
    "direct_flights": "3",
    "carriers": "5"
  },
  {
    "code": "ABS",
    "lat": "22.3722",
    "long": "31.6125",
    "name": "Abu Simbel Airport",
    "city": "Abu Simbel",
    "state": "Aswan",
    "country": "Egypt",
    "woeid": "12512656",
    "tz": "Africa\/Cairo",
    "phone": "",
    "type": "Airports",
    "email": "",
    "url": "",
    "runway_length": "8202",
    "elev": "615",
    "icao": "HEBL",
    "direct_flights": "1",
    "carriers": "1"
  },
  {
    "code": "ABT",
    "lat": "20.2961",
    "long": "41.6342",
    "name": "Al Baha Airport",
    "city": "Al Aqiq",
    "state": "Al Baha",
    "country": "Saudi Arabia",
    "woeid": "12517321",
    "tz": "Asia\/Riyadh",
    "phone": "",
    "type": "Airports",
    "email": "",
    "url": "",
    "runway_length": "10991",
    "elev": "5486",
    "icao": "OEBA",
    "direct_flights": "3",
    "carriers": "1"
  },
  {
    "code": "ABV",
    "lat": "9.0056",
    "long": "7.2661",
    "name": "Abuja International Airport",
    "city": "Gwagwa",
    "state": "Abuja Capital Territory",
    "country": "Nigeria",
    "woeid": "12515056",
    "tz": "Africa\/Lagos",
    "phone": "",
    "type": "Airports",
    "email": "",
    "url": "",
    "runway_length": "11808",
    "elev": "1122",
    "icao": "DNAA",
    "direct_flights": "9",
    "carriers": "12"
  },
  {
    "code": "ABX",
    "lat": "-36.0678",
    "long": "146.956",
    "name": "Albury Airport",
    "city": "Albury",
    "state": "New South Wales",
    "country": "Australia",
    "woeid": "12510583",
    "tz": "Australia\/Sydney",
    "phone": "",
    "type": "Airports",
    "email": "",
    "url": "",
    "runway_length": "6234",
    "elev": "539",
    "icao": "YMAY",
    "direct_flights": "3",
    "carriers": "5"
  },
  {
    "code": "ABY",
    "lat": "31.5328",
    "long": "-84.1867",
    "name": "Southwest Georgia Regional Airport",
    "city": "Albany",
    "state": "Georgia",
    "country": "United States",
    "woeid": "12521922",
    "tz": "America\/New_York",
    "phone": "",
    "type": "Airports",
    "email": "",
    "url": "",
    "runway_length": "6601",
    "elev": "197",
    "icao": "KABY",
    "direct_flights": "1",
    "carriers": "2"
  },
  {
    "code": "ABZ",
    "lat": "57.2004",
    "long": "-2.20373",
    "name": "Aberdeen Dyce International Airport",
    "city": "Aberdeen",
    "state": "Scotland",
    "country": "United Kingdom",
    "woeid": "22450858",
    "tz": "Europe\/London",
    "phone": "",
    "type": "Airports",
    "email": "",
    "url": "http:\/\/www.aberdeenairport.com\/",
    "runway_length": "6002",
    "elev": "215",
    "icao": "EGPD",
    "direct_flights": "37",
    "carriers": "35"
  },
  {
    "code": "ACA",
    "lat": "16.7561",
    "long": "-99.7536",
    "name": "General Juan N Alvarez International Airport",
    "city": "Acapulco",
    "state": "Guerrero",
    "country": "Mexico",
    "woeid": "12514882",
    "tz": "America\/Mexico_City",
    "phone": "52-748-66-93-23",
    "type": "Airports",
    "email": "",
    "url": "",
    "runway_length": null,
    "elev": null,
    "icao": "MMAA",
    "direct_flights": "12",
    "carriers": "17"
  },
  {
    "code": "ACC",
    "lat": "5.5964",
    "long": "-0.17",
    "name": "Kotoka International Airport",
    "city": "Accra",
    "state": "Greater Accra",
    "country": "Ghana",
    "woeid": "12513022",
    "tz": "Africa\/Accra",
    "phone": "",
    "type": "Airports",
    "email": "",
    "url": "http:\/\/www.gcaa.com.gh\/index.html",
    "runway_length": "9800",
    "elev": "205",
    "icao": "DGAA",
    "direct_flights": "25",
    "carriers": "30"
  },
  {
    "code": "ACE",
    "lat": "28.9521",
    "long": "-13.6085",
    "name": "Arrecife Airport",
    "city": "San Bartolom\u00e9",
    "state": "Canary Islands",
    "country": "Spain",
    "woeid": "12523048",
    "tz": "Atlantic\/Canary",
    "phone": "",
    "type": "Airports",
    "email": "",
    "url": "",
    "runway_length": "7874",
    "elev": "46",
    "icao": "GCRR",
    "direct_flights": "49",
    "carriers": "28"
  },
  {
    "code": "ACH",
    "lat": "47.4887",
    "long": "9.55376",
    "name": "Altenrhein Airport",
    "city": "Altenrhein",
    "state": "Canton of St. Gallen",
    "country": "Switzerland",
    "woeid": "23344872",
    "tz": "Europe\/Zurich",
    "phone": "",
    "type": "Airports",
    "email": "",
    "url": "http:\/\/www.airport-stgallen.com\/",
    "runway_length": "4350",
    "elev": "1306",
    "icao": "LSZR",
    "direct_flights": "1",
    "carriers": "1"
  },
  {
    "code": "ACI",
    "lat": "49.7134",
    "long": "-2.22089",
    "name": "The Blaye Airport",
    "city": "St. Peter Port",
    "state": "Channel Islands",
    "country": "United Kingdom",
    "woeid": "12523974",
    "tz": "Europe\/Jersey",
    "phone": "",
    "type": "Airports",
    "email": "",
    "url": "",
    "runway_length": "2887",
    "elev": "291",
    "icao": "EGJA",
    "direct_flights": "2",
    "carriers": "1"
  },
  {
    "code": "ACK",
    "lat": "41.2568",
    "long": "-70.0649",
    "name": "Nantucket Memorial Airport",
    "city": "Nantucket",
    "state": "Massachusetts",
    "country": "United States",
    "woeid": "12521076",
    "tz": "America\/New_York",
    "phone": "",
    "type": "Airports",
    "email": "",
    "url": "",
    "runway_length": "6303",
    "elev": "48",
    "icao": "KACK",
    "direct_flights": "9",
    "carriers": "6"
  },
  {
    "code": "ACP",
    "lat": "68.1609",
    "long": "-151.696",
    "name": "Sahand Airport",
    "city": "Sahand",
    "state": "",
    "country": "Iran",
    "woeid": "23424851",
    "tz": "Asia\/Tehran",
    "phone": "",
    "type": "Airports",
    "email": "",
    "url": "",
    "runway_length": null,
    "elev": null,
    "icao": "KACP",
    "direct_flights": "1",
    "carriers": "1"
  },
  {
    "code": "ACS",
    "lat": "47.7006",
    "long": "18.0064",
    "name": "",
    "city": "Achinsk",
    "state": "Krasnoyarskiy Kray",
    "country": "Russia",
    "woeid": "1979926",
    "tz": "Asia\/Krasnoyarsk",
    "phone": "",
    "type": "Airports",
    "email": "",
    "url": "",
    "runway_length": null,
    "elev": null,
    "icao": "",
    "direct_flights": "0",
    "carriers": "0"
  },
  {
    "code": "ACT",
    "lat": "31.609",
    "long": "-97.2234",
    "name": "Waco Regional Airport",
    "city": "Waco",
    "state": "Texas",
    "country": "United States",
    "woeid": "12522299",
    "tz": "America\/Chicago",
    "phone": "",
    "type": "Airports",
    "email": "",
    "url": "",
    "runway_length": "6597",
    "elev": "516",
    "icao": "KACT",
    "direct_flights": "2",
    "carriers": "2"
  },
  {
    "code": "ACV",
    "lat": "40.9698",
    "long": "-124.108",
    "name": "Arcata Airport",
    "city": "Mckinleyville",
    "state": "California",
    "country": "United States",
    "woeid": "12518649",
    "tz": "America\/Los_Angeles",
    "phone": "",
    "type": "Airports",
    "email": "",
    "url": "",
    "runway_length": "5998",
    "elev": "218",
    "icao": "KACV",
    "direct_flights": "6",
    "carriers": "7"
  },
  {
    "code": "ACX",
    "lat": "25.0887",
    "long": "104.89",
    "name": "Xingyi",
    "city": "Xingyi",
    "state": "Guizhou",
    "country": "China",
    "woeid": "2146722",
    "tz": "Asia\/Chongqing",
    "phone": "",
    "type": "Airports",
    "email": "",
    "url": "",
    "runway_length": null,
    "elev": null,
    "icao": "",
    "direct_flights": "2",
    "carriers": "2"
  },
  {
    "code": "ACY",
    "lat": "39.4512",
    "long": "-74.5716",
    "name": "Atlantic City International Airport",
    "city": "Egg Harbor City",
    "state": "New Jersey",
    "country": "United States",
    "woeid": "12518689",
    "tz": "America\/New_York",
    "phone": "",
    "type": "Airports",
    "email": "",
    "url": "",
    "runway_length": "10000",
    "elev": "76",
    "icao": "KACY",
    "direct_flights": "6",
    "carriers": "1"
  },
  {
    "code": "ACZ",
    "lat": "31.0385",
    "long": "61.4962",
    "name": "Zabol A\/P",
    "city": "Zabol",
    "state": "Sistan va Baluchestan",
    "country": "Iran",
    "woeid": "2255305",
    "tz": "Asia\/Tehran",
    "phone": "",
    "type": "Airports",
    "email": "",
    "url": "",
    "runway_length": null,
    "elev": null,
    "icao": "KACZ",
    "direct_flights": "1",
    "carriers": "1"
  },
  {
    "code": "ADA",
    "lat": "36.9811",
    "long": "35.2803",
    "name": "Sakirpasa Airport",
    "city": "Adana",
    "state": "Adana",
    "country": "Turkey",
    "woeid": "12517911",
    "tz": "Europe\/Istanbul",
    "phone": "",
    "type": "Airports",
    "email": "",
    "url": "",
    "runway_length": "9022",
    "elev": "64",
    "icao": "LTAF",
    "direct_flights": "14",
    "carriers": "4"
  },
  {
    "code": "ADB",
    "lat": "38.32",
    "long": "27.1603",
    "name": "Gaziemir Airport",
    "city": "Azmir",
    "state": "\u0130zmir",
    "country": "Turkey",
    "woeid": "12517893",
    "tz": "Europe\/Istanbul",
    "phone": "",
    "type": "Airports",
    "email": "",
    "url": "",
    "runway_length": "7700",
    "elev": "412",
    "icao": "LTBJ",
    "direct_flights": "37",
    "carriers": "10"
  },
  {
    "code": "ADD",
    "lat": "8.9783",
    "long": "38.8011",
    "name": "Bole International Airport",
    "city": "Addis Ababa",
    "state": "Debub Shewa",
    "country": "Ethiopia",
    "woeid": "12512758",
    "tz": "Africa\/Addis_Ababa",
    "phone": "",
    "type": "Airports",
    "email": "",
    "url": "",
    "runway_length": "12139",
    "elev": "7625",
    "icao": "HAAB",
    "direct_flights": "43",
    "carriers": "25"
  },
  {
    "code": "ADE",
    "lat": "12.8278",
    "long": "45.0306",
    "name": "Aden International Airport",
    "city": "Ash Shaykh Uthman",
    "state": "`Adan",
    "country": "Yemen",
    "woeid": "12522998",
    "tz": "Asia\/Aden",
    "phone": "",
    "type": "Airports",
    "email": "",
    "url": "",
    "runway_length": "10270",
    "elev": "12",
    "icao": "OYAA",
    "direct_flights": "15",
    "carriers": "8"
  },
  {
    "code": "ADF",
    "lat": "37.8099",
    "long": "38.3357",
    "name": "Adiyaman Airport",
    "city": "Adiyaman",
    "state": "Ad\u0131yaman",
    "country": "Turkey",
    "woeid": "2347259",
    "tz": "Europe\/Istanbul",
    "phone": "",
    "type": "Airports",
    "email": "",
    "url": "",
    "runway_length": null,
    "elev": null,
    "icao": "LTAG",
    "direct_flights": "2",
    "carriers": "1"
  },
  {
    "code": "ADJ",
    "lat": "31.973",
    "long": "35.9822",
    "name": "Al Matar Airport",
    "city": "Amman",
    "state": "'Amman",
    "country": "Jordan",
    "woeid": "23388321",
    "tz": "Asia\/Amman",
    "phone": "",
    "type": "Airports",
    "email": "",
    "url": "",
    "runway_length": null,
    "elev": null,
    "icao": "OJAM",
    "direct_flights": "2",
    "carriers": "2"
  },
  {
    "code": "ADK",
    "lat": "51.88",
    "long": "-176.639",
    "name": "Adak Airport",
    "city": "Adak",
    "state": "Alaska",
    "country": "United States",
    "woeid": "12518524",
    "tz": "America\/Adak",
    "phone": "",
    "type": "Airports",
    "email": "",
    "url": "",
    "runway_length": "7794",
    "elev": "19",
    "icao": "PADK",
    "direct_flights": "1",
    "carriers": "1"
  },
  {
    "code": "ADL",
    "lat": "-34.9464",
    "long": "138.529",
    "name": "Adelaide International Airport",
    "city": "Adelaide",
    "state": "South Australia",
    "country": "Australia",
    "woeid": "1107231",
    "tz": "Australia\/Adelaide",
    "phone": "",
    "type": "Airports",
    "email": "",
    "url": "http:\/\/www.aal.com.au",
    "runway_length": "10171",
    "elev": "20",
    "icao": "YPAD",
    "direct_flights": "24",
    "carriers": "20"
  },
  {
    "code": "ADQ",
    "lat": "57.7545",
    "long": "-152.512",
    "name": "Kodiak Airport",
    "city": "Kodiak",
    "state": "Alaska",
    "country": "United States",
    "woeid": "12520492",
    "tz": "America\/Anchorage",
    "phone": "",
    "type": "Airports",
    "email": "",
    "url": "",
    "runway_length": "7548",
    "elev": "73",
    "icao": "PADQ",
    "direct_flights": "12",
    "carriers": "7"
  },
  {
    "code": "ADU",
    "lat": "38.2465",
    "long": "48.2951",
    "name": "Ardabil Airport",
    "city": "Ardabil",
    "state": "Ardabil",
    "country": "Iran",
    "woeid": "2254335",
    "tz": "Asia\/Tehran",
    "phone": "",
    "type": "Airports",
    "email": "",
    "url": "",
    "runway_length": null,
    "elev": null,
    "icao": "OITL",
    "direct_flights": "1",
    "carriers": "2"
  },
  {
    "code": "ADX",
    "lat": "56.377",
    "long": "-2.86117",
    "name": "Leuchars Airport",
    "city": "St. Andrews",
    "state": "Scotland",
    "country": "United Kingdom",
    "woeid": "12518118",
    "tz": "Europe\/London",
    "phone": "",
    "type": "Airports",
    "email": "",
    "url": "",
    "runway_length": "8707",
    "elev": "38",
    "icao": "EGQL",
    "direct_flights": "2",
    "carriers": "1"
  },
  {
    "code": "ADZ",
    "lat": "12.5811",
    "long": "-81.7092",
    "name": "Sesquicentenario Airport",
    "city": "San Andr\u00e9s",
    "state": "San Andres y Providencia",
    "country": "Colombia",
    "woeid": "12512417",
    "tz": "America\/Bogota",
    "phone": "",
    "type": "Airports",
    "email": "",
    "url": "",
    "runway_length": "7808",
    "elev": "19",
    "icao": "SKSP",
    "direct_flights": "7",
    "carriers": "3"
  },
  {
    "code": "AEH",
    "lat": "13.8486",
    "long": "20.8472",
    "name": "Abeche Airport",
    "city": "Ab\u00e9ch\u00e9",
    "state": "Ouaddai",
    "country": "Chad",
    "woeid": "12511930",
    "tz": "Africa\/Ndjamena",
    "phone": "",
    "type": "Airports",
    "email": "",
    "url": "",
    "runway_length": "5905",
    "elev": "1788",
    "icao": "FTTC",
    "direct_flights": "1",
    "carriers": "1"
  },
  {
    "code": "AEP",
    "lat": "-34.5617",
    "long": "-58.4113",
    "name": "Aeroparque Jorge Newbery",
    "city": "Buenos Aires",
    "state": "Ciudad de Buenos Aires",
    "country": "Argentina",
    "woeid": "23388199",
    "tz": "America\/Buenos_Aires",
    "phone": "(54 11) 5480 6111",
    "type": "Airports",
    "email": "",
    "url": "http:\/\/www.aa2000.com.ar",
    "runway_length": "6890",
    "elev": "20",
    "icao": "SABE",
    "direct_flights": "31",
    "carriers": "4"
  },
  {
    "code": "AER",
    "lat": "43.447",
    "long": "39.9552",
    "name": "Adler Airport",
    "city": "Sochi",
    "state": "Krasnodarskiy Kray",
    "country": "Russia",
    "woeid": "12515677",
    "tz": "Europe\/Moscow",
    "phone": "",
    "type": "Airports",
    "email": "",
    "url": "",
    "runway_length": null,
    "elev": null,
    "icao": "URSS",
    "direct_flights": "45",
    "carriers": "31"
  },
  {
    "code": "AES",
    "lat": "62.5607",
    "long": "6.11129",
    "name": "Vigra Airport",
    "city": "Vigra",
    "state": "More og Romsdal",
    "country": "Norway",
    "woeid": "12515129",
    "tz": "Europe\/Oslo",
    "phone": "+47 70 11 48 00",
    "type": "Airports",
    "email": "",
    "url": "",
    "runway_length": "5249",
    "elev": "71",
    "icao": "ENAL",
    "direct_flights": "6",
    "carriers": "2"
  },
  {
    "code": "AET",
    "lat": "66.55",
    "long": "-152.65",
    "name": "Allakaket Airport",
    "city": "Allakaket",
    "state": "Alaska",
    "country": "United States",
    "woeid": "12524551",
    "tz": "America\/Anchorage",
    "phone": "",
    "type": "Airports",
    "email": "",
    "url": "",
    "runway_length": "3000",
    "elev": "350",
    "icao": "",
    "direct_flights": "4",
    "carriers": "4"
  },
  {
    "code": "AEX",
    "lat": "31.323",
    "long": "-92.5417",
    "name": "Alexandria International Airport",
    "city": "Alexandria",
    "state": "Louisiana",
    "country": "United States",
    "woeid": "12519648",
    "tz": "America\/Chicago",
    "phone": "",
    "type": "Airports",
    "email": "",
    "url": "",
    "runway_length": null,
    "elev": null,
    "icao": "KAEX",
    "direct_flights": "5",
    "carriers": "7"
  },
  {
    "code": "AEY",
    "lat": "65.6561",
    "long": "-18.0923",
    "name": "Akureyri Airport",
    "city": "Akureyri",
    "state": "Akureyri",
    "country": "Iceland",
    "woeid": "12513442",
    "tz": "Atlantic\/Reykjavik",
    "phone": "",
    "type": "Airports",
    "email": "",
    "url": "",
    "runway_length": "6365",
    "elev": "6",
    "icao": "BIAR",
    "direct_flights": "4",
    "carriers": "1"
  },
  {
    "code": "AFA",
    "lat": "-34.5886",
    "long": "-68.4028",
    "name": "San Rafael Airport",
    "city": "San Rafael",
    "state": "Mendoza",
    "country": "Argentina",
    "woeid": "12510556",
    "tz": "America\/Buenos_Aires",
    "phone": "",
    "type": "Airports",
    "email": "",
    "url": "",
    "runway_length": "7513",
    "elev": "2444",
    "icao": "SAMR",
    "direct_flights": "2",
    "carriers": "1"
  },
  {
    "code": "AFL",
    "lat": "-9.8661",
    "long": "-56.1044",
    "name": "Alta Floresta Airport",
    "city": "Alta Floresta",
    "state": "Mato Grosso",
    "country": "Brazil",
    "woeid": "12511017",
    "tz": "America\/Campo_Grande",
    "phone": "",
    "type": "Airports",
    "email": "",
    "url": "",
    "runway_length": "5249",
    "elev": "288",
    "icao": "SBAT",
    "direct_flights": "2",
    "carriers": "2"
  },
  {
    "code": "AFS",
    "lat": "41.6136",
    "long": "64.2331",
    "name": "Zarafshan Airport",
    "city": "Zarafshan",
    "state": "Nawoiy",
    "country": "Uzbekistan",
    "woeid": "2272667",
    "tz": "Asia\/Samarkand",
    "phone": "",
    "type": "Airports",
    "email": "",
    "url": "",
    "runway_length": null,
    "elev": null,
    "icao": "",
    "direct_flights": "1",
    "carriers": "1"
  },
  {
    "code": "AFT",
    "lat": "-9.18333",
    "long": "160.95",
    "name": "Afutara Aerodrome",
    "city": "Afutara",
    "state": "Malaita",
    "country": "Solomon Islands",
    "woeid": "1020505",
    "tz": "Pacific\/Guadalcanal",
    "phone": "",
    "type": "Airports",
    "email": "",
    "url": "",
    "runway_length": null,
    "elev": null,
    "icao": "",
    "direct_flights": "1",
    "carriers": "1"
  },
  {
    "code": "AFZ",
    "lat": "36.1903",
    "long": "57.7094",
    "name": "Sabzevar Airport",
    "city": "Sabzevar",
    "state": "Khorasan",
    "country": "Iran",
    "woeid": "12513753",
    "tz": "Asia\/Tehran",
    "phone": "",
    "type": "Airports",
    "email": "",
    "url": "",
    "runway_length": "10428",
    "elev": "3010",
    "icao": "",
    "direct_flights": "1",
    "carriers": "1"
  },
  {
    "code": "AGA",
    "lat": "30.3833",
    "long": "-9.55",
    "name": "Almassira Airport",
    "city": "Agadir",
    "state": "Agadir",
    "country": "Morocco",
    "woeid": "12523043",
    "tz": "Africa\/Casablanca",
    "phone": "",
    "type": "Airports",
    "email": "",
    "url": "",
    "runway_length": "9547",
    "elev": "88",
    "icao": "GMAD",
    "direct_flights": "15",
    "carriers": "16"
  },
  {
    "code": "AGF",
    "lat": "44.1736",
    "long": "0.59223",
    "name": "La Garenne Airport",
    "city": "Laplume",
    "state": "Aquitaine",
    "country": "France",
    "woeid": "12512903",
    "tz": "Europe\/Paris",
    "phone": "",
    "type": "Airports",
    "email": "",
    "url": "",
    "runway_length": "7103",
    "elev": "203",
    "icao": "LFBA",
    "direct_flights": "1",
    "carriers": "1"
  },
  {
    "code": "AGH",
    "lat": "56.2873",
    "long": "12.8675",
    "name": "Angelholm Airport",
    "city": "Angelholm",
    "state": "Skane",
    "country": "Sweden",
    "woeid": "23319131",
    "tz": "Europe\/Stockholm",
    "phone": "",
    "type": "Airports",
    "email": "",
    "url": "http:\/\/www.lfv.se\/templates\/LFV_AirportStartPage____4777.aspx",
    "runway_length": "6562",
    "elev": "65",
    "icao": "ESTA",
    "direct_flights": "4",
    "carriers": "3"
  },
  {
    "code": "AGL",
    "lat": "-9.33333",
    "long": "149.15",
    "name": "Wanigela",
    "city": "Wanigela",
    "state": "Northern",
    "country": "Papua New Guinea",
    "woeid": "1061994",
    "tz": "Pacific\/Port_Moresby",
    "phone": "",
    "type": "Airports",
    "email": "",
    "url": "",
    "runway_length": "3280",
    "elev": "50",
    "icao": "",
    "direct_flights": "1",
    "carriers": "1"
  },
  {
    "code": "AGM",
    "lat": "65.6667",
    "long": "-37.6667",
    "name": "Angmagssalik Airport",
    "city": "Angmassalik",
    "state": "Ostgronland",
    "country": "Greenland",
    "woeid": "12523853",
    "tz": "America\/Godthab",
    "phone": "",
    "type": "Airports",
    "email": "",
    "url": "",
    "runway_length": null,
    "elev": null,
    "icao": "BGAM",
    "direct_flights": "1",
    "carriers": "1"
  },
  {
    "code": "AGN",
    "lat": "57.4996",
    "long": "-134.577",
    "name": "Angoon Airport",
    "city": "Angoon",
    "state": "Alaska",
    "country": "United States",
    "woeid": "12524552",
    "tz": "America\/Anchorage",
    "phone": "",
    "type": "Airports",
    "email": "",
    "url": "",
    "runway_length": null,
    "elev": "1",
    "icao": "PAGN",
    "direct_flights": "1",
    "carriers": "1"
  },
  {
    "code": "AGP",
    "lat": "36.6749",
    "long": "-4.49298",
    "name": "Malaga Airport",
    "city": "Malaga",
    "state": "Andalucia",
    "country": "Spain",
    "woeid": "23232917",
    "tz": "Europe\/Madrid",
    "phone": "+34 952 048 838",
    "type": "Airports",
    "email": "",
    "url": "http:\/\/www.aena.es\/csee\/Satellite?cid=1048858947193&pagename=Est",
    "runway_length": "10500",
    "elev": "52",
    "icao": "LEMG",
    "direct_flights": "106",
    "carriers": "59"
  },
  {
    "code": "AGR",
    "lat": "27.1632",
    "long": "77.9788",
    "name": "Agra Airport",
    "city": "Agra",
    "state": "Uttar Pradesh",
    "country": "India",
    "woeid": "12513528",
    "tz": "Asia\/Kolkata",
    "phone": "",
    "type": "Airports",
    "email": "",
    "url": "",
    "runway_length": "9000",
    "elev": "551",
    "icao": "VIAG",
    "direct_flights": "2",
    "carriers": "1"
  },
  {
    "code": "AGS",
    "lat": "33.3735",
    "long": "-81.9732",
    "name": "Bush Field Airport",
    "city": "Augusta",
    "state": "Georgia",
    "country": "United States",
    "woeid": "12518987",
    "tz": "America\/New_York",
    "phone": "",
    "type": "Airports",
    "email": "",
    "url": "",
    "runway_length": "8001",
    "elev": "145",
    "icao": "KAGS",
    "direct_flights": "2",
    "carriers": "8"
  },
  {
    "code": "AGT",
    "lat": "-25.5266",
    "long": "-54.6226",
    "name": "Alejo Garcia Airport",
    "city": "Presidente Franco",
    "state": "Alto Paran\u00e1",
    "country": "Paraguay",
    "woeid": "12523540",
    "tz": "America\/Asuncion",
    "phone": "",
    "type": "Airports",
    "email": "",
    "url": "",
    "runway_length": null,
    "elev": null,
    "icao": "SGES",
    "direct_flights": "3",
    "carriers": "4"
  },
  {
    "code": "AGU",
    "lat": "21.7047",
    "long": "-102.317",
    "name": "Aguascalientes Airport",
    "city": "Aguascalientes",
    "state": "Aguascalientes",
    "country": "Mexico",
    "woeid": "12514821",
    "tz": "America\/Mexico_City",
    "phone": "",
    "type": "Airports",
    "email": "",
    "url": "",
    "runway_length": "4921",
    "elev": "6112",
    "icao": "MMAS",
    "direct_flights": "8",
    "carriers": "11"
  },
  {
    "code": "AGV",
    "lat": "9.55194",
    "long": "-69.2367",
    "name": "Acarigua",
    "city": "Acarigua",
    "state": "Portuguesa",
    "country": "Venezuela",
    "woeid": "12522827",
    "tz": "America\/Caracas",
    "phone": "",
    "type": "Airports",
    "email": "",
    "url": "",
    "runway_length": "5905",
    "elev": "640",
    "icao": "SVAC",
    "direct_flights": "1",
    "carriers": "1"
  },
  {
    "code": "AGX",
    "lat": "10.8415",
    "long": "72.175",
    "name": "Agatti Island Airport",
    "city": "Agatti Island",
    "state": "Lakshadweep",
    "country": "India",
    "woeid": "12467998",
    "tz": "Asia\/Kolkata",
    "phone": "+91 4894-42217",
    "type": "Airports",
    "email": "",
    "url": "",
    "runway_length": "1204",
    "elev": null,
    "icao": "VOAT",
    "direct_flights": "1",
    "carriers": "1"
  },
  {
    "code": "AHB",
    "lat": "18.24",
    "long": "42.6556",
    "name": "Abha Airport",
    "city": "Hajlah",
    "state": "Asir",
    "country": "Saudi Arabia",
    "woeid": "12517317",
    "tz": "Asia\/Riyadh",
    "phone": "",
    "type": "Airports",
    "email": "",
    "url": "",
    "runway_length": "10991",
    "elev": "6857",
    "icao": "OEAB",
    "direct_flights": "6",
    "carriers": "2"
  },
  {
    "code": "AHC",
    "lat": "40.2664",
    "long": "-120.151",
    "name": "Amedee Army Air Field",
    "city": "Herlong",
    "state": "California",
    "country": "United States",
    "woeid": "12518602",
    "tz": "America\/Los_Angeles",
    "phone": "",
    "type": "Military Airport",
    "email": "",
    "url": "",
    "runway_length": null,
    "elev": null,
    "icao": "KAHC",
    "direct_flights": "1",
    "carriers": "1"
  },
  {
    "code": "AHE",
    "lat": "-14.5",
    "long": "-1.3",
    "name": "Ahe Airport",
    "city": "Ahe",
    "state": "Tuamotu-Gambier",
    "country": "French Polynesia",
    "woeid": "24549702",
    "tz": "Pacific\/Midway",
    "phone": "",
    "type": "Airports",
    "email": "",
    "url": "",
    "runway_length": null,
    "elev": null,
    "icao": "",
    "direct_flights": "3",
    "carriers": "1"
  },
  {
    "code": "AHO",
    "lat": "40.6319",
    "long": "8.29279",
    "name": "Alghero Airport",
    "city": "Alghero",
    "state": "Sardinia",
    "country": "Italy",
    "woeid": "12513798",
    "tz": "Europe\/Rome",
    "phone": "",
    "type": "Airports",
    "email": "",
    "url": "",
    "runway_length": "9842",
    "elev": "88",
    "icao": "LIEA",
    "direct_flights": "23",
    "carriers": "11"
  },
  {
    "code": "AHS",
    "lat": "15.4534",
    "long": "-84.4041",
    "name": "Ahuas Airport",
    "city": "Auas",
    "state": "Gracias a Dios",
    "country": "Honduras",
    "woeid": "12524351",
    "tz": "America\/Tegucigalpa",
    "phone": "",
    "type": "Airports",
    "email": "",
    "url": "",
    "runway_length": "2460",
    "elev": "98",
    "icao": "",
    "direct_flights": "1",
    "carriers": "1"
  },
  {
    "code": "AHU",
    "lat": "35.1781",
    "long": "-3.8383",
    "name": "Cote du Rif Airport",
    "city": "Al Hoceima",
    "state": "Al Hoceima",
    "country": "Morocco",
    "woeid": "12514784",
    "tz": "Africa\/Casablanca",
    "phone": "",
    "type": "Airports",
    "email": "",
    "url": "",
    "runway_length": "7087",
    "elev": "89",
    "icao": "GMTA",
    "direct_flights": "2",
    "carriers": "1"
  },
  {
    "code": "AIA",
    "lat": "42.0622",
    "long": "-102.81",
    "name": "Alliance Municipal Airport",
    "city": "Alliance",
    "state": "Nebraska",
    "country": "United States",
    "woeid": "12518583",
    "tz": "America\/Denver",
    "phone": "",
    "type": "Airports",
    "email": "",
    "url": "",
    "runway_length": "9202",
    "elev": "3929",
    "icao": "KAIA",
    "direct_flights": "3",
    "carriers": "3"
  },
  {
    "code": "AIN",
    "lat": "70.6139",
    "long": "-159.857",
    "name": "Wainwright Airport",
    "city": "Wainwright",
    "state": "Alaska",
    "country": "United States",
    "woeid": "12522307",
    "tz": "America\/Anchorage",
    "phone": "",
    "type": "Airports",
    "email": "",
    "url": "",
    "runway_length": "2200",
    "elev": "25",
    "icao": "PAWT",
    "direct_flights": "2",
    "carriers": "1"
  },
  {
    "code": "AIT",
    "lat": "-18.8299",
    "long": "-159.765",
    "name": "Aitutaki Airport",
    "city": "Aitutaki",
    "state": "Aitutaki",
    "country": "Cook Islands",
    "woeid": "24549676",
    "tz": "Pacific\/Rarotonga",
    "phone": "",
    "type": "Airports",
    "email": "",
    "url": "",
    "runway_length": "5981",
    "elev": "14",
    "icao": "NCAI",
    "direct_flights": "1",
    "carriers": "2"
  },
  {
    "code": "AIU",
    "lat": "-20.0333",
    "long": "-158.1",
    "name": "Atiu Island",
    "city": "Atiu Island",
    "state": "Atiu",
    "country": "Cook Islands",
    "woeid": "12523056",
    "tz": "Pacific\/Rarotonga",
    "phone": "",
    "type": "Airports",
    "email": "",
    "url": "",
    "runway_length": "2648",
    "elev": "200",
    "icao": "NCAT",
    "direct_flights": "1",
    "carriers": "1"
  },
  {
    "code": "AJA",
    "lat": "41.9204",
    "long": "8.79778",
    "name": "Campo Dell Oro Airport",
    "city": "Ajaccio",
    "state": "Corsica",
    "country": "France",
    "woeid": "12512869",
    "tz": "Europe\/Paris",
    "phone": "",
    "type": "Airports",
    "email": "",
    "url": "",
    "runway_length": "6972",
    "elev": "16",
    "icao": "LFKJ",
    "direct_flights": "18",
    "carriers": "6"
  },
  {
    "code": "AJF",
    "lat": "29.7897",
    "long": "40.1039",
    "name": "Al Jouf Airport",
    "city": "Sakakah",
    "state": "Al Jawf",
    "country": "Saudi Arabia",
    "woeid": "12517324",
    "tz": "Asia\/Riyadh",
    "phone": "",
    "type": "Airports",
    "email": "",
    "url": "",
    "runway_length": "12008",
    "elev": "2261",
    "icao": "OESK",
    "direct_flights": "6",
    "carriers": "1"
  },
  {
    "code": "AJI",
    "lat": "39.7239",
    "long": "43.0618",
    "name": "Agri Airport",
    "city": "Agr\u0131",
    "state": "A\u011fr\u0131",
    "country": "Turkey",
    "woeid": "12523340",
    "tz": "Europe\/Istanbul",
    "phone": "",
    "type": "Airports",
    "email": "",
    "url": "",
    "runway_length": null,
    "elev": null,
    "icao": "LTCO",
    "direct_flights": "2",
    "carriers": "1"
  },
  {
    "code": "AJL",
    "lat": "23.7361",
    "long": "92.8083",
    "name": "Aizwal Airport",
    "city": "Aizawl",
    "state": "Mizoram",
    "country": "India",
    "woeid": "12513530",
    "tz": "Asia\/Kolkata",
    "phone": "",
    "type": "Airports",
    "email": "",
    "url": "",
    "runway_length": "3131",
    "elev": "1000",
    "icao": "VEAZ",
    "direct_flights": "3",
    "carriers": "2"
  },
  {
    "code": "AJN",
    "lat": "-12.2234",
    "long": "44.3709",
    "name": "Comoros",
    "city": "Anjouan",
    "state": "Anjouan",
    "country": "Comoros",
    "woeid": "23424786",
    "tz": "Indian\/Comoro",
    "phone": "",
    "type": "Airports",
    "email": "",
    "url": "",
    "runway_length": "4429",
    "elev": "62",
    "icao": "FMCV",
    "direct_flights": "5",
    "carriers": "1"
  },
  {
    "code": "AJR",
    "lat": "65.592",
    "long": "19.2647",
    "name": "Arvidsjaur Airport",
    "city": "Arvidsjaur",
    "state": "Norrbotten",
    "country": "Sweden",
    "woeid": "22656498",
    "tz": "Europe\/Stockholm",
    "phone": "",
    "type": "Airports",
    "email": "",
    "url": "",
    "runway_length": null,
    "elev": null,
    "icao": "ESNX",
    "direct_flights": "2",
    "carriers": "3"
  },
  {
    "code": "AJU",
    "lat": "-10.985",
    "long": "-37.0733",
    "name": "Santa Maria Airport",
    "city": "Aracaju",
    "state": "Sergipe",
    "country": "Brazil",
    "woeid": "12511305",
    "tz": "America\/Belem",
    "phone": "",
    "type": "Airports",
    "email": "",
    "url": "",
    "runway_length": "5372",
    "elev": "26",
    "icao": "SBAR",
    "direct_flights": "5",
    "carriers": "3"
  },
  {
    "code": "AKA",
    "lat": "32.7026",
    "long": "108.912",
    "name": "Ankang Airport",
    "city": "Ankang",
    "state": "Shaanxi",
    "country": "China",
    "woeid": "12511979",
    "tz": "Asia\/Shanghai",
    "phone": "",
    "type": "Airports",
    "email": "",
    "url": "",
    "runway_length": null,
    "elev": null,
    "icao": "ZLAK",
    "direct_flights": "1",
    "carriers": "1"
  },
  {
    "code": "AKB",
    "lat": "52.2217",
    "long": "-174.204",
    "name": "Atka Airport",
    "city": "Atka",
    "state": "Alaska",
    "country": "United States",
    "woeid": "12518685",
    "tz": "America\/Adak",
    "phone": "",
    "type": "Airports",
    "email": "",
    "url": "",
    "runway_length": "3100",
    "elev": "33",
    "icao": "",
    "direct_flights": "1",
    "carriers": "2"
  },
  {
    "code": "AKF",
    "lat": "24.1819",
    "long": "23.3189",
    "name": "Kufra Airport",
    "city": "Kufrah",
    "state": "Al Kufrah",
    "country": "Libya",
    "woeid": "12514656",
    "tz": "Africa\/Tripoli",
    "phone": "",
    "type": "Airports",
    "email": "",
    "url": "",
    "runway_length": "12007",
    "elev": "1367",
    "icao": "HLKF",
    "direct_flights": "1",
    "carriers": "2"
  },
  {
    "code": "AKI",
    "lat": "60.8866",
    "long": "-161.218",
    "name": "Akiak Airport",
    "city": "Bethel",
    "state": "Alaska",
    "country": "United States",
    "woeid": "12524554",
    "tz": "America\/Anchorage",
    "phone": "",
    "type": "Airports",
    "email": "",
    "url": "",
    "runway_length": "2000",
    "elev": "22",
    "icao": "",
    "direct_flights": "1",
    "carriers": "2"
  },
  {
    "code": "AKJ",
    "lat": "43.665",
    "long": "142.453",
    "name": "Asahikawa Airport",
    "city": "Asahikawa-shi",
    "state": "Hokkaido Prefecture",
    "country": "Japan",
    "woeid": "28360516",
    "tz": "Asia\/Tokyo",
    "phone": "",
    "type": "Airports",
    "email": "",
    "url": "",
    "runway_length": "6560",
    "elev": "709",
    "icao": "RJEC",
    "direct_flights": "4",
    "carriers": "5"
  },
  {
    "code": "AKK",
    "lat": "56.95",
    "long": "-154.167",
    "name": "Akhiok Airport",
    "city": "Kodiak",
    "state": "Alaska",
    "country": "United States",
    "woeid": "12524555",
    "tz": "America\/Anchorage",
    "phone": "",
    "type": "Airports",
    "email": "",
    "url": "",
    "runway_length": "2170",
    "elev": "50",
    "icao": "PAKH",
    "direct_flights": "1",
    "carriers": "1"
  },
  {
    "code": "AKL",
    "lat": "-37.0085",
    "long": "174.782",
    "name": "Auckland International Airport",
    "city": "Manukau City",
    "state": "Auckland",
    "country": "New Zealand",
    "woeid": "12515151",
    "tz": "Pacific\/Auckland",
    "phone": "+64 9 256 8899",
    "type": "Airports",
    "email": "",
    "url": "http:\/\/www.auckland-airport.co.nz\/",
    "runway_length": "10800",
    "elev": "23",
    "icao": "NZAA",
    "direct_flights": "52",
    "carriers": "35"
  },
  {
    "code": "AKN",
    "lat": "58.6775",
    "long": "-156.655",
    "name": "King Salmon Airport",
    "city": "King Salmon",
    "state": "Alaska",
    "country": "United States",
    "woeid": "12520466",
    "tz": "America\/Anchorage",
    "phone": "",
    "type": "Airports",
    "email": "",
    "url": "",
    "runway_length": "8500",
    "elev": "57",
    "icao": "PAKN",
    "direct_flights": "14",
    "carriers": "7"
  },
  {
    "code": "AKP",
    "lat": "68.1916",
    "long": "-151.79",
    "name": "Anaktuvuk Pass Airport",
    "city": "Anaktuvuk Pass",
    "state": "Alaska",
    "country": "United States",
    "woeid": "12524556",
    "tz": "America\/Anchorage",
    "phone": "",
    "type": "Airports",
    "email": "",
    "url": "",
    "runway_length": "5500",
    "elev": "2100",
    "icao": "PAKP",
    "direct_flights": "3",
    "carriers": "4"
  },
  {
    "code": "AKS",
    "lat": "-27.6667",
    "long": "27.3167",
    "name": "Kroonstad Airport",
    "city": "Kroonstad",
    "state": "Free State",
    "country": "South Africa",
    "woeid": "12517431",
    "tz": "Africa\/Johannesburg",
    "phone": "",
    "type": "Airports",
    "email": "",
    "url": "",
    "runway_length": null,
    "elev": null,
    "icao": "FAKS",
    "direct_flights": "1",
    "carriers": "1"
  },
  {
    "code": "AKU",
    "lat": "41.171",
    "long": "80.1982",
    "name": "Aksu Airport",
    "city": "Aksu",
    "state": "Xinjiang",
    "country": "China",
    "woeid": "12511976",
    "tz": "Asia\/Kashgar",
    "phone": "",
    "type": "Airports",
    "email": "",
    "url": "",
    "runway_length": null,
    "elev": null,
    "icao": "ZWAK",
    "direct_flights": "1",
    "carriers": "1"
  },
  {
    "code": "AKV",
    "lat": "60.8142",
    "long": "-78.1509",
    "name": "Akulivik Airport",
    "city": "Chisasibi",
    "state": "Quebec",
    "country": "Canada",
    "woeid": "12524039",
    "tz": "America\/Iqaluit",
    "phone": "",
    "type": "Airports",
    "email": "",
    "url": "",
    "runway_length": null,
    "elev": null,
    "icao": "CYKO",
    "direct_flights": "2",
    "carriers": "1"
  },
  {
    "code": "AKX",
    "lat": "50.2362",
    "long": "57.2115",
    "name": "Aktyubinsk Airport",
    "city": "Aqtobe",
    "state": "Aqtobe",
    "country": "Kazakhstan",
    "woeid": "12514256",
    "tz": "Asia\/Aqtobe",
    "phone": "",
    "type": "Airports",
    "email": "",
    "url": "",
    "runway_length": "10170",
    "elev": "722",
    "icao": "UATT",
    "direct_flights": "4",
    "carriers": "3"
  },
  {
    "code": "AKY",
    "lat": "20.1303",
    "long": "92.8803",
    "name": "Sittwe Airport",
    "city": "Sittwe",
    "state": "Rakhine State",
    "country": "Myanmar",
    "woeid": "12510936",
    "tz": "Asia\/Rangoon",
    "phone": "",
    "type": "Airports",
    "email": "",
    "url": "",
    "runway_length": "6000",
    "elev": "28",
    "icao": "VYSW",
    "direct_flights": "3",
    "carriers": "3"
  },
  {
    "code": "ALA",
    "lat": "43.3608",
    "long": "77.0319",
    "name": "Alma Ata Airport",
    "city": "Almaty",
    "state": "Almaty",
    "country": "Kazakhstan",
    "woeid": "12514259",
    "tz": "Asia\/Almaty",
    "phone": "",
    "type": "Airports",
    "email": "",
    "url": "",
    "runway_length": "14427",
    "elev": "2234",
    "icao": "UAAA",
    "direct_flights": "44",
    "carriers": "36"
  },
  {
    "code": "ALB",
    "lat": "42.7426",
    "long": "-73.809",
    "name": "Albany International Airport",
    "city": "Latham",
    "state": "New York",
    "country": "United States",
    "woeid": "12518554",
    "tz": "America\/New_York",
    "phone": "518-242-2222",
    "type": "Airports",
    "email": "",
    "url": "http:\/\/www.albanyairport.com",
    "runway_length": "7200",
    "elev": "285",
    "icao": "KALB",
    "direct_flights": "27",
    "carriers": "27"
  },
  {
    "code": "ALC",
    "lat": "38.2844",
    "long": "-0.5576",
    "name": "Alicante Airport",
    "city": "Elx",
    "state": "Valencia",
    "country": "Spain",
    "woeid": "22412043",
    "tz": "Europe\/Madrid",
    "phone": "",
    "type": "Airports",
    "email": "",
    "url": "",
    "runway_length": "9842",
    "elev": "141",
    "icao": "LEAL",
    "direct_flights": "91",
    "carriers": "37"
  },
  {
    "code": "ALF",
    "lat": "69.9793",
    "long": "23.3571",
    "name": "Alta Airport",
    "city": "Alta",
    "state": "Finnmark Fylke",
    "country": "Norway",
    "woeid": "12515099",
    "tz": "Europe\/Oslo",
    "phone": "",
    "type": "Airports",
    "email": "",
    "url": "",
    "runway_length": "5249",
    "elev": "9",
    "icao": "ENAT",
    "direct_flights": "7",
    "carriers": "3"
  },
  {
    "code": "ALG",
    "lat": "36.6993",
    "long": "3.21935",
    "name": "Houari Boumediene Airport",
    "city": "Algiers",
    "state": "Alger",
    "country": "Algeria",
    "woeid": "12510331",
    "tz": "Africa\/Algiers",
    "phone": "",
    "type": "Airports",
    "email": "",
    "url": "http:\/\/www.egsa.dz",
    "runway_length": "11483",
    "elev": "82",
    "icao": "DAAG",
    "direct_flights": "62",
    "carriers": "20"
  },
  {
    "code": "ALH",
    "lat": "-34.9447",
    "long": "117.808",
    "name": "Albany Airport",
    "city": "Albany",
    "state": "Western Australia",
    "country": "Australia",
    "woeid": "12510582",
    "tz": "Australia\/Perth",
    "phone": "",
    "type": "Airports",
    "email": "",
    "url": "",
    "runway_length": "5250",
    "elev": "232",
    "icao": "YABA",
    "direct_flights": "1",
    "carriers": "1"
  },
  {
    "code": "ALM",
    "lat": "32.8407",
    "long": "-105.994",
    "name": "Alamogordo White Sands Regional Airport",
    "city": "Alamogordo",
    "state": "New Mexico",
    "country": "United States",
    "woeid": "12518553",
    "tz": "America\/Denver",
    "phone": "",
    "type": "Airports",
    "email": "",
    "url": "",
    "runway_length": "7005",
    "elev": "4197",
    "icao": "KALM",
    "direct_flights": "1",
    "carriers": "1"
  },
  {
    "code": "ALO",
    "lat": "42.5509",
    "long": "-92.3951",
    "name": "Waterloo Municipal Airport",
    "city": "Waterloo",
    "state": "Iowa",
    "country": "United States",
    "woeid": "12522347",
    "tz": "America\/Chicago",
    "phone": "",
    "type": "Airports",
    "email": "",
    "url": "",
    "runway_length": "8401",
    "elev": "873",
    "icao": "KALO",
    "direct_flights": "1",
    "carriers": "4"
  },
  {
    "code": "ALP",
    "lat": "36.1808",
    "long": "37.2267",
    "name": "Aleppo International Airport",
    "city": "Djibrine",
    "state": "H'alab",
    "country": "Syria",
    "woeid": "12517695",
    "tz": "Asia\/Damascus",
    "phone": "",
    "type": "Airports",
    "email": "",
    "url": "",
    "runway_length": "9908",
    "elev": "1276",
    "icao": "OSAP",
    "direct_flights": "19",
    "carriers": "13"
  },
  {
    "code": "ALS",
    "lat": "37.4444",
    "long": "-105.865",
    "name": "San Luis Valley Regional Airport",
    "city": "Alamosa",
    "state": "Colorado",
    "country": "United States",
    "woeid": "12521726",
    "tz": "America\/Denver",
    "phone": "",
    "type": "Airports",
    "email": "",
    "url": "",
    "runway_length": "8499",
    "elev": "7535",
    "icao": "KALS",
    "direct_flights": "1",
    "carriers": "3"
  },
  {
    "code": "ALW",
    "lat": "46.0879",
    "long": "-118.283",
    "name": "Walla Walla Regional Airport",
    "city": "Walla Walla",
    "state": "Washington",
    "country": "United States",
    "woeid": "12522317",
    "tz": "America\/Los_Angeles",
    "phone": "",
    "type": "Airports",
    "email": "",
    "url": "",
    "runway_length": "7186",
    "elev": "1205",
    "icao": "KALW",
    "direct_flights": "1",
    "carriers": "4"
  },
  {
    "code": "ALY",
    "lat": "31.1845",
    "long": "29.9491",
    "name": "An-Nuzhah Airport",
    "city": "Alexandria",
    "state": "Al Iskandariyah",
    "country": "Egypt",
    "woeid": "23388264",
    "tz": "Africa\/Cairo",
    "phone": "",
    "type": "Airports",
    "email": "",
    "url": "",
    "runway_length": "7021",
    "elev": null,
    "icao": "HEAX",
    "direct_flights": "19",
    "carriers": "15"
  },
  {
    "code": "ALZ",
    "lat": "56.8988",
    "long": "-154.246",
    "name": "Alitak Seaplane Base",
    "city": "Alitak",
    "state": "Alaska",
    "country": "United States",
    "woeid": "12524557",
    "tz": "America\/Anchorage",
    "phone": "",
    "type": "Sea Plane Base",
    "email": "",
    "url": "",
    "runway_length": null,
    "elev": "1",
    "icao": "",
    "direct_flights": "1",
    "carriers": "1"
  },
  {
    "code": "AMA",
    "lat": "35.2177",
    "long": "-101.706",
    "name": "Amarillo International Airport",
    "city": "Amarillo",
    "state": "Texas",
    "country": "United States",
    "woeid": "12518598",
    "tz": "America\/Chicago",
    "phone": "",
    "type": "Airports",
    "email": "",
    "url": "",
    "runway_length": "13502",
    "elev": "3606",
    "icao": "KAMA",
    "direct_flights": "7",
    "carriers": "10"
  },
  {
    "code": "AMD",
    "lat": "23.0728",
    "long": "72.6328",
    "name": "Sardar Vallabhbhai Patel International Airport",
    "city": "Ahmedabad",
    "state": "Gujarat",
    "country": "India",
    "woeid": "12513529",
    "tz": "Asia\/Kolkata",
    "phone": "",
    "type": "Airports",
    "email": "",
    "url": "",
    "runway_length": "7500",
    "elev": "184",
    "icao": "VAAH",
    "direct_flights": "16",
    "carriers": "15"
  },
  {
    "code": "AMH",
    "lat": "6.01327",
    "long": "37.5405",
    "name": "Ethiopia",
    "city": "Arba Mintch",
    "state": "Gamo Gofa",
    "country": "Ethiopia",
    "woeid": "23424808",
    "tz": "Africa\/Addis_Ababa",
    "phone": "",
    "type": "Airports",
    "email": "",
    "url": "",
    "runway_length": "3999",
    "elev": "4000",
    "icao": "HAAM",
    "direct_flights": "1",
    "carriers": "1"
  },
  {
    "code": "AMI",
    "lat": "-8.562",
    "long": "116.098",
    "name": "Selaparang",
    "city": "Mataram",
    "state": "Nusa Tenggara Barat",
    "country": "Indonesia",
    "woeid": "12513504",
    "tz": "Asia\/Makassar",
    "phone": "",
    "type": "Airports",
    "email": "",
    "url": "",
    "runway_length": "5249",
    "elev": "48",
    "icao": "WRRA",
    "direct_flights": "6",
    "carriers": "7"
  },
  {
    "code": "AMM",
    "lat": "31.7231",
    "long": "35.9936",
    "name": "Queen Alia International Airport",
    "city": "Amman",
    "state": "'Amman",
    "country": "Jordan",
    "woeid": "12514059",
    "tz": "Asia\/Amman",
    "phone": "",
    "type": "Airports",
    "email": "",
    "url": "",
    "runway_length": "12008",
    "elev": "2395",
    "icao": "OJAI",
    "direct_flights": "62",
    "carriers": "41"
  },
  {
    "code": "AMQ",
    "lat": "-3.7067",
    "long": "128.078",
    "name": "Pattimura Airport",
    "city": "Ambon",
    "state": "Maluku",
    "country": "Indonesia",
    "woeid": "12513492",
    "tz": "Asia\/Jakarta",
    "phone": "",
    "type": "Airports",
    "email": "",
    "url": "",
    "runway_length": "6070",
    "elev": "33",
    "icao": "WAPP",
    "direct_flights": "5",
    "carriers": "3"
  },
  {
    "code": "AMS",
    "lat": "52.3122",
    "long": "4.77511",
    "name": "Schiphol Airport",
    "city": "Schiphol Zuid",
    "state": "North Holland",
    "country": "Netherlands",
    "woeid": "22386730",
    "tz": "Europe\/Amsterdam",
    "phone": "+31-207940800",
    "type": "Airports",
    "email": "",
    "url": "http:\/\/www.schiphol.com\/",
    "runway_length": "12467",
    "elev": "-11",
    "icao": "EHAM",
    "direct_flights": "284",
    "carriers": "118"
  },
  {
    "code": "AMV",
    "lat": "69.7638",
    "long": "61.5586",
    "name": "Amderma Airport",
    "city": "Nar'yan-Mar",
    "state": "Nenetskiy Avtonomnyy Okrug",
    "country": "Russia",
    "woeid": "12515701",
    "tz": "Europe\/Moscow",
    "phone": "",
    "type": "Airports",
    "email": "",
    "url": "",
    "runway_length": null,
    "elev": null,
    "icao": "ULDD",
    "direct_flights": "1",
    "carriers": "1"
  },
  {
    "code": "AMY",
    "lat": "38.4819",
    "long": "-100.608",
    "name": "Ambatomainty",
    "city": "Ambatomainty",
    "state": "Fianarantsoa",
    "country": "Madagascar",
    "woeid": "1489538",
    "tz": "Indian\/Antananarivo",
    "phone": "",
    "type": "Airports",
    "email": "",
    "url": "",
    "runway_length": "3010",
    "elev": "1050",
    "icao": "",
    "direct_flights": "2",
    "carriers": "1"
  },
  {
    "code": "ANC",
    "lat": "61.1767",
    "long": "-149.961",
    "name": "Anchorage International Airport",
    "city": "Anchorage",
    "state": "Alaska",
    "country": "United States",
    "woeid": "12518613",
    "tz": "America\/Anchorage",
    "phone": "(907) 266-2526",
    "type": "Airports",
    "email": "",
    "url": "http:\/\/www.dot.state.ak.us\/anc\/index.shtml",
    "runway_length": "10897",
    "elev": "144",
    "icao": "PANC",
    "direct_flights": "62",
    "carriers": "47"
  },
  {
    "code": "ANE",
    "lat": "47.5603",
    "long": "-0.312222",
    "name": "A\u00e9roport d'Angers-Marc\u00e9",
    "city": "Seiches-sur-le-Loir",
    "state": "Pays de la Loire",
    "country": "France",
    "woeid": "22868196",
    "tz": "Europe\/Paris",
    "phone": "",
    "type": "Airports",
    "email": "",
    "url": "",
    "runway_length": "4052",
    "elev": "184",
    "icao": "LFRA",
    "direct_flights": "1",
    "carriers": "1"
  },
  {
    "code": "ANF",
    "lat": "-23.44",
    "long": "-70.4419",
    "name": "Cerro Moreno International Airport",
    "city": "Antofagasta",
    "state": "Antofagasta",
    "country": "Chile",
    "woeid": "12512312",
    "tz": "America\/Santiago",
    "phone": "",
    "type": "Airports",
    "email": "",
    "url": "",
    "runway_length": "8527",
    "elev": "460",
    "icao": "SCFA",
    "direct_flights": "7",
    "carriers": "5"
  },
  {
    "code": "ANG",
    "lat": "45.7274",
    "long": "0.21835",
    "name": "Brie Champniers Airport",
    "city": "Champniers",
    "state": "Poitou-Charentes",
    "country": "France",
    "woeid": "12512864",
    "tz": "Europe\/Paris",
    "phone": "",
    "type": "Airports",
    "email": "",
    "url": "",
    "runway_length": "2723",
    "elev": "289",
    "icao": "LFBU",
    "direct_flights": "1",
    "carriers": "1"
  },
  {
    "code": "ANI",
    "lat": "61.5742",
    "long": "-159.535",
    "name": "Aniak Airport",
    "city": "Bethel",
    "state": "Alaska",
    "country": "United States",
    "woeid": "12524558",
    "tz": "America\/Anchorage",
    "phone": "",
    "type": "Airports",
    "email": "",
    "url": "",
    "runway_length": "6000",
    "elev": "88",
    "icao": "PANI",
    "direct_flights": "6",
    "carriers": "8"
  },
  {
    "code": "ANM",
    "lat": "-18.7772",
    "long": "46.8543",
    "name": "Madagascar",
    "city": "Antalaha",
    "state": null,
    "country": "Madagascar",
    "woeid": "23424883",
    "tz": "Indian\/Antananarivo",
    "phone": "",
    "type": "Airports",
    "email": "",
    "url": "",
    "runway_length": "3914",
    "elev": "20",
    "icao": "FMNH",
    "direct_flights": "3",
    "carriers": "1"
  },
  {
    "code": "ANR",
    "lat": "51.1896",
    "long": "4.45236",
    "name": "Deurne Airport",
    "city": "Antwerp",
    "state": "Antwerp",
    "country": "Belgium",
    "woeid": "22028955",
    "tz": "Europe\/Brussels",
    "phone": "",
    "type": "Airports",
    "email": "",
    "url": "",
    "runway_length": "4839",
    "elev": "39",
    "icao": "EBAW",
    "direct_flights": "3",
    "carriers": "2"
  },
  {
    "code": "ANU",
    "lat": "17.1375",
    "long": "-61.79",
    "name": "V C Bird International Airport",
    "city": "Carlisle",
    "state": "Saint George",
    "country": "Antigua and Barbuda",
    "woeid": "12510300",
    "tz": "America\/Antigua",
    "phone": "",
    "type": "Airports",
    "email": "",
    "url": "",
    "runway_length": "9000",
    "elev": "62",
    "icao": "TAPA",
    "direct_flights": "28",
    "carriers": "14"
  },
  {
    "code": "ANV",
    "lat": "62.65",
    "long": "-160.217",
    "name": "Anvik Airport",
    "city": "Anvik",
    "state": "Alaska",
    "country": "United States",
    "woeid": "12524559",
    "tz": "America\/Nome",
    "phone": "",
    "type": "Airports",
    "email": "",
    "url": "",
    "runway_length": "2880",
    "elev": "325",
    "icao": "PANV",
    "direct_flights": "2",
    "carriers": "3"
  },
  {
    "code": "ANX",
    "lat": "69.3088",
    "long": "16.1236",
    "name": "Andoya Airport",
    "city": "Andenes",
    "state": "Nordland Fylke",
    "country": "Norway",
    "woeid": "12515100",
    "tz": "Europe\/Oslo",
    "phone": "",
    "type": "Airports",
    "email": "",
    "url": "",
    "runway_length": "8005",
    "elev": "46",
    "icao": "ENAN",
    "direct_flights": "4",
    "carriers": "1"
  },
  {
    "code": "AOC",
    "lat": "50.9794",
    "long": "12.5111",
    "name": "Altenburg Nobitz",
    "city": "Altenburg",
    "state": "Thuringia",
    "country": "Germany",
    "woeid": "12597007",
    "tz": "Europe\/Berlin",
    "phone": "",
    "type": "Airports",
    "email": "",
    "url": "http:\/\/www.flughafen-altenburg.de",
    "runway_length": "2235",
    "elev": "641",
    "icao": "EDAC",
    "direct_flights": "2",
    "carriers": "1"
  },
  {
    "code": "AOE",
    "lat": "39.7905",
    "long": "30.5172",
    "name": "Anadolu University Airport",
    "city": "Eski\u015fehir",
    "state": "Eski\u015fehir",
    "country": "Turkey",
    "woeid": "12523341",
    "tz": "Europe\/Istanbul",
    "phone": "",
    "type": "Airports",
    "email": "",
    "url": "",
    "runway_length": null,
    "elev": null,
    "icao": "",
    "direct_flights": "2",
    "carriers": "2"
  },
  {
    "code": "AOI",
    "lat": "43.6158",
    "long": "13.3634",
    "name": "Falconara Airport",
    "city": "Falconara Marittima",
    "state": "Marche",
    "country": "Italy",
    "woeid": "12513819",
    "tz": "Europe\/Rome",
    "phone": "",
    "type": "Airports",
    "email": "",
    "url": "http:\/\/www.ancona-airport.com",
    "runway_length": "9810",
    "elev": "50",
    "icao": "LIPY",
    "direct_flights": "12",
    "carriers": "16"
  },
  {
    "code": "AOJ",
    "lat": "40.7357",
    "long": "140.69",
    "name": "Aomori Airport",
    "city": "Aomori-shi",
    "state": "Aomori Prefecture",
    "country": "Japan",
    "woeid": "12523065",
    "tz": "Asia\/Tokyo",
    "phone": "",
    "type": "Airports",
    "email": "",
    "url": "",
    "runway_length": "4590",
    "elev": "662",
    "icao": "RJSA",
    "direct_flights": "6",
    "carriers": "3"
  },
  {
    "code": "AOK",
    "lat": "35.4239",
    "long": "27.1472",
    "name": "Karpathos Airport",
    "city": "Karpathos",
    "state": "Notio Aigaio",
    "country": "Greece",
    "woeid": "12513293",
    "tz": "Europe\/Athens",
    "phone": "",
    "type": "Airports",
    "email": "",
    "url": "",
    "runway_length": "6890",
    "elev": "23",
    "icao": "LGKP",
    "direct_flights": "6",
    "carriers": "3"
  },
  {
    "code": "AOO",
    "lat": "40.2952",
    "long": "-78.324",
    "name": "Altoona-Blair County Airport",
    "city": "Martinsburg",
    "state": "Pennsylvania",
    "country": "United States",
    "woeid": "12518593",
    "tz": "America\/New_York",
    "phone": "",
    "type": "Airports",
    "email": "",
    "url": "",
    "runway_length": "5466",
    "elev": "1504",
    "icao": "KAOO",
    "direct_flights": "2",
    "carriers": "1"
  },
  {
    "code": "AOR",
    "lat": "6.1947",
    "long": "100.404",
    "name": "Sultan Abdul Halim Airport",
    "city": "Kepala Batas",
    "state": "Kedah",
    "country": "Malaysia",
    "woeid": "12515009",
    "tz": "Asia\/Kuala_Lumpur",
    "phone": "",
    "type": "Airports",
    "email": "",
    "url": "",
    "runway_length": "6600",
    "elev": "15",
    "icao": "WMKA",
    "direct_flights": "1",
    "carriers": "2"
  },
  {
    "code": "AOS",
    "lat": "57.4672",
    "long": "-153.839",
    "name": "Amook Bay Seaplane Base",
    "city": "Amook",
    "state": "Alaska",
    "country": "United States",
    "woeid": "12524560",
    "tz": "America\/Anchorage",
    "phone": "",
    "type": "Airports",
    "email": "",
    "url": "",
    "runway_length": null,
    "elev": null,
    "icao": "",
    "direct_flights": "2",
    "carriers": "1"
  },
  {
    "code": "APA",
    "lat": "39.5752",
    "long": "-104.845",
    "name": "Centennial Airport",
    "city": "Englewood",
    "state": "Colorado",
    "country": "United States",
    "woeid": "12519112",
    "tz": "America\/Denver",
    "phone": "",
    "type": "Other Airport",
    "email": "",
    "url": "",
    "runway_length": "10002",
    "elev": "5883",
    "icao": "KAPA",
    "direct_flights": "0",
    "carriers": "0"
  },
  {
    "code": "APF",
    "lat": "26.1483",
    "long": "-81.7745",
    "name": "Naples Municipal Airport",
    "city": "Naples",
    "state": "Florida",
    "country": "United States",
    "woeid": "12521078",
    "tz": "America\/New_York",
    "phone": "",
    "type": "Airports",
    "email": "",
    "url": "",
    "runway_length": "5000",
    "elev": "9",
    "icao": "KAPF",
    "direct_flights": "2",
    "carriers": "1"
  },
  {
    "code": "APK",
    "lat": "-8.64687",
    "long": "-131.787",
    "name": "French Polynesia",
    "city": "Apataki",
    "state": "",
    "country": "French Polynesia",
    "woeid": "23424817",
    "tz": "Pacific\/Midway",
    "phone": "",
    "type": "Airports",
    "email": "",
    "url": "",
    "runway_length": "2756",
    "elev": "3",
    "icao": "NTGD",
    "direct_flights": "2",
    "carriers": "1"
  },
  {
    "code": "APL",
    "lat": "-15.1",
    "long": "39.2814",
    "name": "Nampula Airport",
    "city": "Nampula",
    "state": "Nampula",
    "country": "Mozambique",
    "woeid": "12515027",
    "tz": "Africa\/Maputo",
    "phone": "",
    "type": "Airports",
    "email": "",
    "url": "",
    "runway_length": "6562",
    "elev": "1457",
    "icao": "FQNP",
    "direct_flights": "5",
    "carriers": "2"
  },
  {
    "code": "APN",
    "lat": "45.07",
    "long": "-83.5683",
    "name": "Alpena County Regional Airport",
    "city": "Alpena",
    "state": "Michigan",
    "country": "United States",
    "woeid": "12518585",
    "tz": "America\/New_York",
    "phone": "",
    "type": "Airports",
    "email": "",
    "url": "",
    "runway_length": "9001",
    "elev": "689",
    "icao": "KAPN",
    "direct_flights": "2",
    "carriers": "4"
  },
  {
    "code": "APO",
    "lat": "7.88361",
    "long": "-76.6321",
    "name": "Apartado Airport",
    "city": "Apartad\u00f3",
    "state": "Antioquia",
    "country": "Colombia",
    "woeid": "12523474",
    "tz": "America\/Bogota",
    "phone": "",
    "type": "Airports",
    "email": "",
    "url": "",
    "runway_length": null,
    "elev": null,
    "icao": "",
    "direct_flights": "1",
    "carriers": "3"
  },
  {
    "code": "APW",
    "lat": "-13.8255",
    "long": "-171.993",
    "name": "Faleolo Airport",
    "city": "Apia",
    "state": "A`ana",
    "country": "Samoa",
    "woeid": "12523066",
    "tz": "Pacific\/Apia",
    "phone": "",
    "type": "Airports",
    "email": "",
    "url": "",
    "runway_length": "8858",
    "elev": "58",
    "icao": "NSFA",
    "direct_flights": "7",
    "carriers": "6"
  },
  {
    "code": "AQG",
    "lat": "30.5167",
    "long": "117.033",
    "name": "Anqing Airport",
    "city": "Anqing",
    "state": "Anhui",
    "country": "China",
    "woeid": "12523067",
    "tz": "Asia\/Shanghai",
    "phone": "",
    "type": "Airports",
    "email": "",
    "url": "",
    "runway_length": null,
    "elev": null,
    "icao": "ZSAQ",
    "direct_flights": "2",
    "carriers": "2"
  },
  {
    "code": "AQI",
    "lat": "28.3317",
    "long": "46.13",
    "name": "Hafr Al Batin Airport",
    "city": "Qaisumah",
    "state": "",
    "country": "Saudi Arabia",
    "woeid": "12517338",
    "tz": "Asia\/Riyadh",
    "phone": "",
    "type": "Airports",
    "email": "",
    "url": "",
    "runway_length": "7054",
    "elev": "1175",
    "icao": "",
    "direct_flights": "2",
    "carriers": "1"
  },
  {
    "code": "AQJ",
    "lat": "29.6119",
    "long": "35.0178",
    "name": "Aqaba International Airport",
    "city": "Aqaba",
    "state": "Al `Aqabah",
    "country": "Jordan",
    "woeid": "12514051",
    "tz": "Asia\/Amman",
    "phone": "",
    "type": "Airports",
    "email": "",
    "url": "",
    "runway_length": "9843",
    "elev": "174",
    "icao": "OJAQ",
    "direct_flights": "10",
    "carriers": "5"
  },
  {
    "code": "AQP",
    "lat": "-16.3372",
    "long": "-71.5692",
    "name": "Rodriguez Ballon Airport",
    "city": "Arequipa",
    "state": "Arequipa",
    "country": "Peru",
    "woeid": "12515218",
    "tz": "America\/Lima",
    "phone": "",
    "type": "Airports",
    "email": "",
    "url": "",
    "runway_length": "9777",
    "elev": "8365",
    "icao": "SPQU",
    "direct_flights": "3",
    "carriers": "6"
  },
  {
    "code": "ARC",
    "lat": "68.1167",
    "long": "-145.583",
    "name": "Arctic Village Airport",
    "city": "Arctic Village",
    "state": "Alaska",
    "country": "United States",
    "woeid": "12524562",
    "tz": "America\/Anchorage",
    "phone": "",
    "type": "Airports",
    "email": "",
    "url": "",
    "runway_length": "4450",
    "elev": "2086",
    "icao": "PARC",
    "direct_flights": "3",
    "carriers": "3"
  },
  {
    "code": "ARD",
    "lat": "35.1437",
    "long": "-93.1848",
    "name": "Alor Island",
    "city": "Alor Island",
    "state": "",
    "country": "Indonesia",
    "woeid": "23424846",
    "tz": "Asia\/Jakarta",
    "phone": "",
    "type": "Airports",
    "email": "",
    "url": "",
    "runway_length": "2952",
    "elev": "39",
    "icao": "",
    "direct_flights": "1",
    "carriers": "1"
  },
  {
    "code": "ARH",
    "lat": "64.4465",
    "long": "40.4242",
    "name": "Arkhangelsk Airport",
    "city": "Arkhangel'sk",
    "state": "Arkhangelrskaya Oblast",
    "country": "Russia",
    "woeid": "12515724",
    "tz": "Europe\/Moscow",
    "phone": "",
    "type": "Airports",
    "email": "",
    "url": "",
    "runway_length": null,
    "elev": null,
    "icao": "ULAA",
    "direct_flights": "13",
    "carriers": "5"
  },
  {
    "code": "ARI",
    "lat": "-18.3458",
    "long": "-70.3358",
    "name": "Chacalluta Airport",
    "city": "Arica",
    "state": "Tarapaca",
    "country": "Chile",
    "woeid": "12512313",
    "tz": "America\/Santiago",
    "phone": "",
    "type": "Airports",
    "email": "",
    "url": "",
    "runway_length": "7119",
    "elev": "180",
    "icao": "SCAR",
    "direct_flights": "3",
    "carriers": "4"
  },
  {
    "code": "ARK",
    "lat": "-3.36515",
    "long": "36.6738",
    "name": "Arusha Airport",
    "city": "Arusha",
    "state": "Arusha",
    "country": "Tanzania",
    "woeid": "24554855",
    "tz": "Africa\/Dar_es_Salaam",
    "phone": "",
    "type": "Airports",
    "email": "",
    "url": "",
    "runway_length": null,
    "elev": null,
    "icao": "HTAR",
    "direct_flights": "1",
    "carriers": "2"
  },
  {
    "code": "ARM",
    "lat": "-30.5308",
    "long": "151.618",
    "name": "Armidale Airport",
    "city": "Armidale",
    "state": "New South Wales",
    "country": "Australia",
    "woeid": "12510590",
    "tz": "Australia\/Sydney",
    "phone": "",
    "type": "Airports",
    "email": "",
    "url": "",
    "runway_length": "5702",
    "elev": "3556",
    "icao": "YARM",
    "direct_flights": "1",
    "carriers": "1"
  },
  {
    "code": "ARN",
    "lat": "59.6521",
    "long": "17.9317",
    "name": "Arlanda Airport",
    "city": "M\u00e4rst",
    "state": "Stockholm",
    "country": "Sweden",
    "woeid": "12517610",
    "tz": "Europe\/Stockholm",
    "phone": "+46 8 797 6000",
    "type": "Airports",
    "email": "",
    "url": "http:\/\/www.arlanda.se",
    "runway_length": "10827",
    "elev": "123",
    "icao": "ESSA",
    "direct_flights": "126",
    "carriers": "76"
  },
  {
    "code": "ART",
    "lat": "43.9942",
    "long": "-76.0232",
    "name": "Watertown International Airport",
    "city": "Dexter",
    "state": "New York",
    "country": "United States",
    "woeid": "12522348",
    "tz": "America\/New_York",
    "phone": "",
    "type": "Airports",
    "email": "",
    "url": "",
    "runway_length": "5000",
    "elev": "325",
    "icao": "KART",
    "direct_flights": "1",
    "carriers": "1"
  },
  {
    "code": "ARU",
    "lat": "-21.1436",
    "long": "-50.4261",
    "name": "Aracatuba Airport",
    "city": "Ara\u00e7atuba",
    "state": "Sao Paulo",
    "country": "Brazil",
    "woeid": "12511026",
    "tz": "America\/Sao_Paulo",
    "phone": "",
    "type": "Airports",
    "email": "",
    "url": "",
    "runway_length": "6955",
    "elev": "1358",
    "icao": "SBAU",
    "direct_flights": "2",
    "carriers": "1"
  },
  {
    "code": "ARV",
    "lat": "45.9296",
    "long": "-89.7371",
    "name": "Lakelan-Noble F. Lee Memerial Field Airport",
    "city": "Woodruff",
    "state": "Wisconsin",
    "country": "United States",
    "woeid": "12521141",
    "tz": "America\/Chicago",
    "phone": "",
    "type": "Airports",
    "email": "",
    "url": "",
    "runway_length": "5000",
    "elev": "1628",
    "icao": "KARV",
    "direct_flights": "2",
    "carriers": "1"
  },
  {
    "code": "ARW",
    "lat": "46.1805",
    "long": "21.2609",
    "name": "Ceala Airport",
    "city": "Arad",
    "state": "Arad",
    "country": "Romania",
    "woeid": "12515518",
    "tz": "Europe\/Bucharest",
    "phone": "",
    "type": "Airports",
    "email": "",
    "url": "http:\/\/www.aeroportularad.ro\/index_en.html",
    "runway_length": "6562",
    "elev": "351",
    "icao": "LRAR",
    "direct_flights": "5",
    "carriers": "1"
  },
  {
    "code": "ASA",
    "lat": "31.4124",
    "long": "-97.0528",
    "name": "Assab",
    "city": "Assab",
    "state": "",
    "country": "Ethiopia",
    "woeid": "23424808",
    "tz": "Africa\/Addis_Ababa",
    "phone": "",
    "type": "Airports",
    "email": "",
    "url": "",
    "runway_length": "7546",
    "elev": "46",
    "icao": "HHSB",
    "direct_flights": "1",
    "carriers": "1"
  },
  {
    "code": "ASB",
    "lat": "37.9842",
    "long": "58.3294",
    "name": "Ashkhabad Northwest Airport",
    "city": "Ashgabat",
    "state": "Ashkhabad",
    "country": "Turkmenistan",
    "woeid": "12517960",
    "tz": "Asia\/Ashgabat",
    "phone": "",
    "type": "Airports",
    "email": "",
    "url": "",
    "runway_length": "9842",
    "elev": "689",
    "icao": "UTAA",
    "direct_flights": "15",
    "carriers": "8"
  },
  {
    "code": "ASD",
    "lat": "24.6978",
    "long": "-77.7961",
    "name": "Andros Town Airport",
    "city": "Fresh Creek",
    "state": "Central Andros",
    "country": "Bahamas",
    "woeid": "12510859",
    "tz": "America\/Nassau",
    "phone": "",
    "type": "Airports",
    "email": "",
    "url": "",
    "runway_length": "4000",
    "elev": "5",
    "icao": "MYAF",
    "direct_flights": "1",
    "carriers": "1"
  },
  {
    "code": "ASE",
    "lat": "39.2197",
    "long": "-106.864",
    "name": "Aspen Pitkin County Airport-Sardy Field",
    "city": "Aspen",
    "state": "Colorado",
    "country": "United States",
    "woeid": "12518679",
    "tz": "America\/Denver",
    "phone": "",
    "type": "Airports",
    "email": "",
    "url": "",
    "runway_length": "7003",
    "elev": "7815",
    "icao": "KASE",
    "direct_flights": "5",
    "carriers": "5"
  },
  {
    "code": "ASF",
    "lat": "46.2971",
    "long": "48.0515",
    "name": "Astrakhan Southeast Airport",
    "city": "Astrakhan'",
    "state": "Astrakhanskaya Oblast",
    "country": "Russia",
    "woeid": "12515745",
    "tz": "Europe\/Samara",
    "phone": "",
    "type": "Airports",
    "email": "",
    "url": "",
    "runway_length": null,
    "elev": null,
    "icao": "URWA",
    "direct_flights": "7",
    "carriers": "7"
  },
  {
    "code": "ASI",
    "lat": "-7.93586",
    "long": "-14.4081",
    "name": "Wideawake Fld",
    "city": "Georgetown, Ascension Island",
    "state": "Ascension",
    "country": "St. Helena",
    "woeid": "12466481",
    "tz": "Atlantic\/St_Helena",
    "phone": "",
    "type": "Airports",
    "email": "",
    "url": "",
    "runway_length": null,
    "elev": null,
    "icao": "FHAW",
    "direct_flights": "2",
    "carriers": "1"
  },
  {
    "code": "ASJ",
    "lat": "28.431",
    "long": "129.712",
    "name": "Amami Airport",
    "city": "Amami O Shima",
    "state": "Mie Prefecture",
    "country": "Japan",
    "woeid": "12513942",
    "tz": "Asia\/Tokyo",
    "phone": "",
    "type": "Airports",
    "email": "",
    "url": "",
    "runway_length": "4070",
    "elev": "59",
    "icao": "RJKA",
    "direct_flights": "3",
    "carriers": "2"
  },
  {
    "code": "ASM",
    "lat": "15.2906",
    "long": "38.9103",
    "name": "Yohannes Iv International Airport",
    "city": "Asmara",
    "state": "Maekel",
    "country": "Eritrea",
    "woeid": "12512750",
    "tz": "Africa\/Asmara",
    "phone": "",
    "type": "Airports",
    "email": "",
    "url": "",
    "runway_length": "9843",
    "elev": "7661",
    "icao": "HHAS",
    "direct_flights": "9",
    "carriers": "7"
  },
  {
    "code": "ASO",
    "lat": "10.0611",
    "long": "34.5344",
    "name": "Ethiopia",
    "city": "Asosa",
    "state": "Welega",
    "country": "Ethiopia",
    "woeid": "23424808",
    "tz": "Africa\/Addis_Ababa",
    "phone": "",
    "type": "Airports",
    "email": "",
    "url": "",
    "runway_length": "3346",
    "elev": "5260",
    "icao": "HASO",
    "direct_flights": "1",
    "carriers": "1"
  },
  {
    "code": "ASP",
    "lat": "-23.802",
    "long": "133.892",
    "name": "Alice Springs Airport",
    "city": "Alice Springs",
    "state": "Northern Territory",
    "country": "Australia",
    "woeid": "12510584",
    "tz": "Australia\/Darwin",
    "phone": "",
    "type": "Airports",
    "email": "",
    "url": "",
    "runway_length": "8000",
    "elev": "1789",
    "icao": "YBAS",
    "direct_flights": "8",
    "carriers": "3"
  },
  {
    "code": "ASR",
    "lat": "38.7708",
    "long": "35.4939",
    "name": "Erkilet Airport",
    "city": "Kayseri",
    "state": "Kayseri",
    "country": "Turkey",
    "woeid": "12517886",
    "tz": "Europe\/Istanbul",
    "phone": "",
    "type": "Airports",
    "email": "",
    "url": "",
    "runway_length": "5500",
    "elev": "3571",
    "icao": "LTAU",
    "direct_flights": "7",
    "carriers": "2"
  },
  {
    "code": "ASU",
    "lat": "-25.2397",
    "long": "-57.5189",
    "name": "Silvio Pettirossi International Airport",
    "city": "Colonia Mariano Roque Alonso",
    "state": "Central",
    "country": "Paraguay",
    "woeid": "12515187",
    "tz": "America\/Asuncion",
    "phone": "",
    "type": "Airports",
    "email": "",
    "url": "",
    "runway_length": "11000",
    "elev": "292",
    "icao": "SGAS",
    "direct_flights": "9",
    "carriers": "8"
  },
  {
    "code": "ASV",
    "lat": "-2.63333",
    "long": "37.25",
    "name": "Amboseli",
    "city": "Amboseli",
    "state": "Rift Valley",
    "country": "Kenya",
    "woeid": "1528663",
    "tz": "Africa\/Nairobi",
    "phone": "",
    "type": "Airports",
    "email": "",
    "url": "",
    "runway_length": "3281",
    "elev": "3755",
    "icao": "HKAM",
    "direct_flights": "1",
    "carriers": "1"
  },
  {
    "code": "ASW",
    "lat": "23.965",
    "long": "32.8217",
    "name": "Aswan Airport",
    "city": "Aswan",
    "state": "Aswan",
    "country": "Egypt",
    "woeid": "12512666",
    "tz": "Africa\/Cairo",
    "phone": "",
    "type": "Airports",
    "email": "",
    "url": "",
    "runway_length": "11155",
    "elev": "656",
    "icao": "HESN",
    "direct_flights": "5",
    "carriers": "1"
  },
  {
    "code": "ATB",
    "lat": "17.7",
    "long": "33.9833",
    "name": "Atbara",
    "city": "Atbara",
    "state": "Nahr an Nil",
    "country": "Sudan",
    "woeid": "1431005",
    "tz": "Africa\/Khartoum",
    "phone": "",
    "type": "Airports",
    "email": "",
    "url": "",
    "runway_length": "5905",
    "elev": "1181",
    "icao": "HSAT",
    "direct_flights": "1",
    "carriers": "1"
  },
  {
    "code": "ATC",
    "lat": "24.6287",
    "long": "-75.6734",
    "name": "Arthur's Town Airport",
    "city": "Arthur Town",
    "state": "Cat Island",
    "country": "Bahamas",
    "woeid": "12524017",
    "tz": "America\/Nassau",
    "phone": "",
    "type": "Airports",
    "email": "",
    "url": "",
    "runway_length": null,
    "elev": null,
    "icao": "MYCA",
    "direct_flights": "1",
    "carriers": "1"
  },
  {
    "code": "ATD",
    "lat": "-8.86667",
    "long": "161.033",
    "name": "Atoifi",
    "city": "Atoifi",
    "state": "Malaita",
    "country": "Solomon Islands",
    "woeid": "1020493",
    "tz": "Pacific\/Noumea",
    "phone": "",
    "type": "Airports",
    "email": "",
    "url": "",
    "runway_length": "1968",
    "elev": null,
    "icao": "",
    "direct_flights": "1",
    "carriers": "1"
  },
  {
    "code": "ATH",
    "lat": "37.8937",
    "long": "23.7235",
    "name": "Eleftherios Venizelos International Airport",
    "city": "Athens",
    "state": "Attiki",
    "country": "Greece",
    "woeid": "12513286",
    "tz": "Europe\/Athens",
    "phone": "0030 210 353 0001",
    "type": "Airports",
    "email": "",
    "url": "http:\/\/www.aia.gr",
    "runway_length": "13123",
    "elev": "308",
    "icao": "LGAV",
    "direct_flights": "117",
    "carriers": "81"
  },
  {
    "code": "ATK",
    "lat": "70.4639",
    "long": "-157.331",
    "name": "Atqasuk Airport",
    "city": "Atqasuk",
    "state": "Alaska",
    "country": "United States",
    "woeid": "12524564",
    "tz": "America\/Anchorage",
    "phone": "",
    "type": "Airports",
    "email": "",
    "url": "",
    "runway_length": "1250",
    "elev": "65",
    "icao": "PATQ",
    "direct_flights": "2",
    "carriers": "1"
  },
  {
    "code": "ATL",
    "lat": "33.6558",
    "long": "-84.4333",
    "name": "Hartsfield-Jackson Atlanta International Airport",
    "city": "Atlanta",
    "state": "Georgia",
    "country": "United States",
    "woeid": "12522118",
    "tz": "America\/New_York",
    "phone": "(654) 57 8833",
    "type": "Airports",
    "email": "",
    "url": "http:\/\/www.atlanta-airport.com\/",
    "runway_length": "11889",
    "elev": "1026",
    "icao": "KATL",
    "direct_flights": "253",
    "carriers": "60"
  },
  {
    "code": "ATM",
    "lat": "-3.2506",
    "long": "-52.2517",
    "name": "Altamira Airport",
    "city": "Altamira",
    "state": "Para",
    "country": "Brazil",
    "woeid": "12511018",
    "tz": "America\/Manaus",
    "phone": "",
    "type": "Airports",
    "email": "",
    "url": "",
    "runway_length": "6572",
    "elev": "367",
    "icao": "SBHT",
    "direct_flights": "2",
    "carriers": "1"
  },
  {
    "code": "ATQ",
    "lat": "31.7131",
    "long": "74.7955",
    "name": "Raja Sansi Airport",
    "city": "Raja Sansi",
    "state": "Punjab",
    "country": "India",
    "woeid": "12513536",
    "tz": "Asia\/Kolkata",
    "phone": "",
    "type": "Airports",
    "email": "",
    "url": "",
    "runway_length": "9250",
    "elev": "754",
    "icao": "VIAR",
    "direct_flights": "10",
    "carriers": "10"
  },
  {
    "code": "ATR",
    "lat": "20.5067",
    "long": "-13.0436",
    "name": "Atar Airport",
    "city": "Atar",
    "state": "Adrar",
    "country": "Mauritania",
    "woeid": "12514800",
    "tz": "Africa\/Nouakchott",
    "phone": "",
    "type": "Airports",
    "email": "",
    "url": "",
    "runway_length": "9843",
    "elev": "758",
    "icao": "GQPA",
    "direct_flights": "2",
    "carriers": "1"
  },
  {
    "code": "ATT",
    "lat": "60.865",
    "long": "-162.276",
    "name": "Atmautluak Airport",
    "city": "Atmautluak",
    "state": "Alaska",
    "country": "United States",
    "woeid": "12524566",
    "tz": "America\/Anchorage",
    "phone": "",
    "type": "Airports",
    "email": "",
    "url": "",
    "runway_length": "2250",
    "elev": "17",
    "icao": "",
    "direct_flights": "3",
    "carriers": "3"
  },
  {
    "code": "ATW",
    "lat": "44.2603",
    "long": "-88.5111",
    "name": "Outagamie County Airport",
    "city": "Appleton",
    "state": "Wisconsin",
    "country": "United States",
    "woeid": "12521262",
    "tz": "America\/Chicago",
    "phone": "",
    "type": "Airports",
    "email": "",
    "url": "http:\/\/www.atwairport.com\/",
    "runway_length": "7001",
    "elev": "918",
    "icao": "KATW",
    "direct_flights": "8",
    "carriers": "11"
  },
  {
    "code": "ATY",
    "lat": "44.9216",
    "long": "-97.1609",
    "name": "Watertown Municipal Airport",
    "city": "Watertown",
    "state": "South Dakota",
    "country": "United States",
    "woeid": "12522349",
    "tz": "America\/Chicago",
    "phone": "",
    "type": "Airports",
    "email": "",
    "url": "",
    "runway_length": "6895",
    "elev": "1748",
    "icao": "KATY",
    "direct_flights": "3",
    "carriers": "4"
  },
  {
    "code": "ATZ",
    "lat": "27.0411",
    "long": "31.0114",
    "name": "Asyut Airport",
    "city": "Asyut",
    "state": "Asyut",
    "country": "Egypt",
    "woeid": "12512667",
    "tz": "Africa\/Cairo",
    "phone": "",
    "type": "Airports",
    "email": "",
    "url": "",
    "runway_length": "9843",
    "elev": "774",
    "icao": "HEAT",
    "direct_flights": "5",
    "carriers": "5"
  },
  {
    "code": "AUA",
    "lat": "12.5022",
    "long": "-70.0139",
    "name": "Reina Beatrix International Airport",
    "city": "Aruba",
    "state": "",
    "country": "Aruba",
    "woeid": "12510298",
    "tz": "America\/Aruba",
    "phone": "",
    "type": "Airports",
    "email": "",
    "url": "http:\/\/www.airportaruba.com",
    "runway_length": "9000",
    "elev": "59",
    "icao": "TNCA",
    "direct_flights": "25",
    "carriers": "24"
  },
  {
    "code": "AUC",
    "lat": "7.0703",
    "long": "-70.7406",
    "name": "Santiago Perez Airport",
    "city": "Arauca",
    "state": "Caldas",
    "country": "Colombia",
    "woeid": "12512414",
    "tz": "America\/Bogota",
    "phone": "",
    "type": "Airports",
    "email": "",
    "url": "",
    "runway_length": "6888",
    "elev": "400",
    "icao": "SKUC",
    "direct_flights": "2",
    "carriers": "2"
  },
  {
    "code": "AUG",
    "lat": "44.3181",
    "long": "-69.7933",
    "name": "Augusta State Airport",
    "city": "Augusta",
    "state": "Maine",
    "country": "United States",
    "woeid": "12518700",
    "tz": "America\/New_York",
    "phone": "",
    "type": "Airports",
    "email": "",
    "url": "",
    "runway_length": "5140",
    "elev": "353",
    "icao": "KAUG",
    "direct_flights": "3",
    "carriers": "1"
  },
  {
    "code": "AUH",
    "lat": "24.4331",
    "long": "54.6489",
    "name": "Abu Dhabi International Airport",
    "city": "Abu Dhabi",
    "state": "Abu Dhabi",
    "country": "United Arab Emirates",
    "woeid": "12517727",
    "tz": "Asia\/Dubai",
    "phone": "+971 2-5757500",
    "type": "Airports",
    "email": "",
    "url": "http:\/\/www.dcaauh.gov.ae\/english\/abudhabi\/introduction.htm#",
    "runway_length": "10499",
    "elev": "15",
    "icao": "OMAA",
    "direct_flights": "76",
    "carriers": "45"
  },
  {
    "code": "AUK",
    "lat": "62.6833",
    "long": "-164.633",
    "name": "Alakanuk Airport",
    "city": "Alakanuk",
    "state": "Alaska",
    "country": "United States",
    "woeid": "12524567",
    "tz": "America\/Anchorage",
    "phone": "",
    "type": "Airports",
    "email": "",
    "url": "",
    "runway_length": "2400",
    "elev": "10",
    "icao": "",
    "direct_flights": "3",
    "carriers": "2"
  },
  {
    "code": "AUQ",
    "lat": "-9.7719",
    "long": "-139.015",
    "name": "Atuona Airport",
    "city": "Atuona",
    "state": "Marquesas Islands",
    "country": "French Polynesia",
    "woeid": "12523068",
    "tz": "Pacific\/Midway",
    "phone": "",
    "type": "Airports",
    "email": "",
    "url": "",
    "runway_length": "3691",
    "elev": "1473",
    "icao": "",
    "direct_flights": "4",
    "carriers": "1"
  },
  {
    "code": "AUR",
    "lat": "44.8984",
    "long": "2.41982",
    "name": "Aurillac Airport",
    "city": "Aurillac",
    "state": "Auvergne",
    "country": "France",
    "woeid": "12512848",
    "tz": "Europe\/Paris",
    "phone": "",
    "type": "Other Airport",
    "email": "",
    "url": "",
    "runway_length": "5577",
    "elev": "2096",
    "icao": "LFLW",
    "direct_flights": "1",
    "carriers": "1"
  },
  {
    "code": "AUS",
    "lat": "30.2027",
    "long": "-97.6653",
    "name": "Austin-Bergstrom International Airport",
    "city": "Austin",
    "state": "Texas",
    "country": "United States",
    "woeid": "23418445",
    "tz": "America\/Chicago",
    "phone": "",
    "type": "Airports",
    "email": "",
    "url": "http:\/\/www.abia.org\/",
    "runway_length": "12248",
    "elev": "542",
    "icao": "KAUS",
    "direct_flights": "50",
    "carriers": "37"
  },
  {
    "code": "AUX",
    "lat": "-7.2281",
    "long": "-48.2403",
    "name": "Araguaina Airport",
    "city": "Araguaina",
    "state": "Norte",
    "country": "Brazil",
    "woeid": "12511029",
    "tz": "America\/Araguaina",
    "phone": "",
    "type": "Airports",
    "email": "",
    "url": "",
    "runway_length": "5905",
    "elev": "771",
    "icao": "",
    "direct_flights": "3",
    "carriers": "2"
  },
  {
    "code": "AUY",
    "lat": "-20.1909",
    "long": "169.825",
    "name": "Vanuatu",
    "city": "Aneityum",
    "state": "Tafea",
    "country": "Vanuatu",
    "woeid": "23424907",
    "tz": "Pacific\/Efate",
    "phone": "",
    "type": "Airports",
    "email": "",
    "url": "",
    "runway_length": "2001",
    "elev": "10",
    "icao": "",
    "direct_flights": "1",
    "carriers": "1"
  },
  {
    "code": "AVL",
    "lat": "35.4349",
    "long": "-82.5373",
    "name": "Asheville Regional Airport",
    "city": "Fletcher",
    "state": "North Carolina",
    "country": "United States",
    "woeid": "12518672",
    "tz": "America\/New_York",
    "phone": "",
    "type": "Airports",
    "email": "",
    "url": "http:\/\/www.flyavl.com\/",
    "runway_length": "8001",
    "elev": "2165",
    "icao": "KAVL",
    "direct_flights": "7",
    "carriers": "10"
  },
  {
    "code": "AVN",
    "lat": "43.9056",
    "long": "4.89951",
    "name": "Avignon-Caumont Airport",
    "city": "Avignon",
    "state": "Provence-alpes-cote d'Azur",
    "country": "France",
    "woeid": "12523803",
    "tz": "Europe\/Paris",
    "phone": "",
    "type": "Airports",
    "email": "",
    "url": "",
    "runway_length": "4593",
    "elev": "118",
    "icao": "LFMV",
    "direct_flights": "4",
    "carriers": "2"
  },
  {
    "code": "AVP",
    "lat": "41.3354",
    "long": "-75.7294",
    "name": "Wilkes Barre Scranton International Airport",
    "city": "Pittston",
    "state": "Pennsylvania",
    "country": "United States",
    "woeid": "12522441",
    "tz": "America\/New_York",
    "phone": "",
    "type": "Airports",
    "email": "",
    "url": "",
    "runway_length": "7501",
    "elev": "957",
    "icao": "KAVP",
    "direct_flights": "8",
    "carriers": "8"
  },
  {
    "code": "AVU",
    "lat": "-9.85",
    "long": "160.417",
    "name": "Avu Avu",
    "city": "Avu Avu",
    "state": "Guadalcanal",
    "country": "Solomon Islands",
    "woeid": "1020506",
    "tz": "Pacific\/Guadalcanal",
    "phone": "",
    "type": "Airports",
    "email": "",
    "url": "",
    "runway_length": "2210",
    "elev": "8",
    "icao": "",
    "direct_flights": "1",
    "carriers": "1"
  },
  {
    "code": "AVV",
    "lat": "-38.0408",
    "long": "144.468",
    "name": "Avalon Airport",
    "city": "Lara",
    "state": "Victoria",
    "country": "Australia",
    "woeid": "12510591",
    "tz": "Australia\/Melbourne",
    "phone": "",
    "type": "Other Airport",
    "email": "",
    "url": "",
    "runway_length": "10000",
    "elev": "34",
    "icao": "YMAV",
    "direct_flights": "4",
    "carriers": "2"
  },
  {
    "code": "AWB",
    "lat": "-8.01667",
    "long": "142.75",
    "name": "Awaba",
    "city": "Awaba",
    "state": "",
    "country": "Papua New Guinea",
    "woeid": "23424926",
    "tz": "Pacific\/Port_Moresby",
    "phone": "",
    "type": "Airports",
    "email": "",
    "url": "",
    "runway_length": "2300",
    "elev": null,
    "icao": "",
    "direct_flights": "2",
    "carriers": "1"
  },
  {
    "code": "AWD",
    "lat": "-19.2501",
    "long": "169.598",
    "name": "Aniwa Airport",
    "city": "Aniwa",
    "state": "Tafea",
    "country": "Vanuatu",
    "woeid": "12515050",
    "tz": "Pacific\/Efate",
    "phone": "",
    "type": "Airports",
    "email": "",
    "url": "",
    "runway_length": "3085",
    "elev": "69",
    "icao": "NVVB",
    "direct_flights": "1",
    "carriers": "1"
  },
  {
    "code": "AWZ",
    "lat": "31.3378",
    "long": "48.7597",
    "name": "Ahvaz Airport",
    "city": "Ahvaz",
    "state": "Khuzestan",
    "country": "Iran",
    "woeid": "12513699",
    "tz": "Asia\/Tehran",
    "phone": "",
    "type": "Airports",
    "email": "",
    "url": "",
    "runway_length": "11100",
    "elev": "60",
    "icao": "OIAW",
    "direct_flights": "7",
    "carriers": "6"
  },
  {
    "code": "AXA",
    "lat": "18.2103",
    "long": "-63.0575",
    "name": "Wallblake Airport",
    "city": "Anguilla",
    "state": "The Valley",
    "country": "Anguilla",
    "woeid": "12510830",
    "tz": "America\/Anguilla",
    "phone": "",
    "type": "Airports",
    "email": "",
    "url": "",
    "runway_length": "3600",
    "elev": "108",
    "icao": "TQPF",
    "direct_flights": "5",
    "carriers": "4"
  },
  {
    "code": "AXD",
    "lat": "40.8567",
    "long": "25.9567",
    "name": "Alexandroupolis Airport",
    "city": "Alexandroupolis",
    "state": "Anatoliki Makedonia",
    "country": "Greece",
    "woeid": "12513282",
    "tz": "Europe\/Athens",
    "phone": "",
    "type": "Airports",
    "email": "",
    "url": "",
    "runway_length": "8530",
    "elev": "24",
    "icao": "LGAL",
    "direct_flights": "2",
    "carriers": "2"
  },
  {
    "code": "AXM",
    "lat": "4.4564",
    "long": "-75.7681",
    "name": "El Eden Airport",
    "city": "La Tebaida",
    "state": "Quindio",
    "country": "Colombia",
    "woeid": "12512374",
    "tz": "America\/Bogota",
    "phone": "",
    "type": "Airports",
    "email": "",
    "url": "",
    "runway_length": "7825",
    "elev": "3960",
    "icao": "SKAR",
    "direct_flights": "2",
    "carriers": "4"
  },
  {
    "code": "AXP",
    "lat": "22.4441",
    "long": "-73.9775",
    "name": "Spring Point Airport",
    "city": "Spring Point",
    "state": "Acklins",
    "country": "Bahamas",
    "woeid": "12510881",
    "tz": "America\/Nassau",
    "phone": "",
    "type": "Airports",
    "email": "",
    "url": "",
    "runway_length": "5000",
    "elev": "11",
    "icao": "MYAP",
    "direct_flights": "2",
    "carriers": "1"
  },
  {
    "code": "AXR",
    "lat": "-15.5098",
    "long": "-146.538",
    "name": "French Polynesia",
    "city": "Arutua",
    "state": "Tuamotu-Gambier",
    "country": "French Polynesia",
    "woeid": "23424817",
    "tz": "Pacific\/Midway",
    "phone": "",
    "type": "Airports",
    "email": "",
    "url": "",
    "runway_length": "2230",
    "elev": "7",
    "icao": "NTGU",
    "direct_flights": "4",
    "carriers": "1"
  },
  {
    "code": "AXT",
    "lat": "39.6153",
    "long": "140.219",
    "name": "Akita Airport",
    "city": "Akita-shi",
    "state": "Akita Prefecture",
    "country": "Japan",
    "woeid": "12513940",
    "tz": "Asia\/Tokyo",
    "phone": "",
    "type": "Airports",
    "email": "",
    "url": "",
    "runway_length": "8200",
    "elev": "313",
    "icao": "RJSK",
    "direct_flights": "7",
    "carriers": "5"
  },
  {
    "code": "AXU",
    "lat": "14.147",
    "long": "38.7726",
    "name": "Axum",
    "city": "Axum",
    "state": "Tigray",
    "country": "Ethiopia",
    "woeid": "1313280",
    "tz": "Africa\/Addis_Ababa",
    "phone": "",
    "type": "Airports",
    "email": "",
    "url": "",
    "runway_length": "5347",
    "elev": "7000",
    "icao": "HAAX",
    "direct_flights": "3",
    "carriers": "1"
  },
  {
    "code": "AYQ",
    "lat": "-25.1872",
    "long": "130.977",
    "name": "Ayers Rock Airport",
    "city": "Ayers Rock",
    "state": "Northern Territory",
    "country": "Australia",
    "woeid": "12510821",
    "tz": "Australia\/Darwin",
    "phone": "",
    "type": "Airports",
    "email": "",
    "url": "",
    "runway_length": "6560",
    "elev": "1626",
    "icao": "YAYE",
    "direct_flights": "5",
    "carriers": "2"
  },
  {
    "code": "AYT",
    "lat": "36.9022",
    "long": "30.7917",
    "name": "Antalya Airport",
    "city": "Antalya",
    "state": "Antalya",
    "country": "Turkey",
    "woeid": "12517869",
    "tz": "Europe\/Istanbul",
    "phone": "",
    "type": "Airports",
    "email": "",
    "url": "",
    "runway_length": "11243",
    "elev": "167",
    "icao": "LTAI",
    "direct_flights": "51",
    "carriers": "24"
  },
  {
    "code": "AZA",
    "lat": "33.3078",
    "long": "-111.656",
    "name": "Phoenix-Mesa Gateway Airport",
    "city": "Phoenix",
    "state": "Arizona",
    "country": "United States",
    "woeid": "2449808",
    "tz": "America\/Phoenix",
    "phone": "",
    "type": "Airports",
    "email": "",
    "url": "http:\/\/www.flywga.org\/",
    "runway_length": "10",
    "elev": "1",
    "icao": "KIWA",
    "direct_flights": "8",
    "carriers": "1"
  },
  {
    "code": "AZD",
    "lat": "31.905",
    "long": "54.2786",
    "name": "Yazd Airport",
    "city": "Yezd",
    "state": "Yazd",
    "country": "Iran",
    "woeid": "12513771",
    "tz": "Asia\/Tehran",
    "phone": "",
    "type": "Airports",
    "email": "",
    "url": "",
    "runway_length": "8530",
    "elev": "4066",
    "icao": "OIYY",
    "direct_flights": "2",
    "carriers": "3"
  },
  {
    "code": "AZN",
    "lat": "40.7324",
    "long": "72.2931",
    "name": "Andizhan Airport",
    "city": "Andijon",
    "state": "Andijon",
    "country": "Uzbekistan",
    "woeid": "12522576",
    "tz": "Asia\/Tashkent",
    "phone": "",
    "type": "Airports",
    "email": "",
    "url": "",
    "runway_length": null,
    "elev": null,
    "icao": "UTKA",
    "direct_flights": "8",
    "carriers": "2"
  },
  {
    "code": "AZO",
    "lat": "42.2398",
    "long": "-85.5563",
    "name": "Kalamazoo-Battle Creek International Airport",
    "city": "Kalamazoo",
    "state": "Michigan",
    "country": "United States",
    "woeid": "12520414",
    "tz": "America\/New_York",
    "phone": "",
    "type": "Airports",
    "email": "",
    "url": "",
    "runway_length": "6499",
    "elev": "874",
    "icao": "KAZO",
    "direct_flights": "5",
    "carriers": "12"
  },
  {
    "code": "AZR",
    "lat": "27.8378",
    "long": "-0.1864",
    "name": "Touat Airport",
    "city": "Adrar",
    "state": "Adrar",
    "country": "Algeria",
    "woeid": "12510355",
    "tz": "Africa\/Algiers",
    "phone": "",
    "type": "Airports",
    "email": "",
    "url": "",
    "runway_length": "9843",
    "elev": "915",
    "icao": "DAUA",
    "direct_flights": "1",
    "carriers": "1"
  },
  {
    "code": "AZS",
    "lat": "19.2099",
    "long": "-69.3279",
    "name": "Samana El Catey International Airport",
    "city": "Samana",
    "state": "Samana",
    "country": "Dominican Republic",
    "woeid": "76414",
    "tz": "America\/Santo_Domingo",
    "phone": "",
    "type": "Airports",
    "email": "",
    "url": "",
    "runway_length": null,
    "elev": null,
    "icao": "MDEP",
    "direct_flights": "6",
    "carriers": "6"
  },